,id,server,secret,title,tags,views,description,date_taken,latitude,longitude,url_s,owner_name,owner,media
0,54812709216,65535,454293e9e2,"Barcaro Jazz Bar & Restaurant, Salizzada del Fondaco dei Tedeschi, Venice, Veneto, Italy",2025 bar barcarojazz european ita italian italy lamp restaurant salizzadadelfondacodeitedeschi sign stuartsmith studiaphotos venetian veneto venezia venice,450,,2025-01-18 10:30:11,45.438316,12.337066,https://live.staticflickr.com/65535/54812709216_454293e9e2_m.jpg,Stuart Smith.,127349327@N05,photo
1,54812700466,65535,c86e3c9311,"Barcaro Jazz Bar & Restaurant, Salizzada del Fondaco dei Tedeschi, Venice, Veneto, Italy",2025 bar barcarojazz european ita italian italy lamp restaurant salizzadadelfondacodeitedeschi sign stuartsmith studiaphotos venetian veneto venezia venice,552,,2025-01-18 10:30:11,45.438316,12.337066,https://live.staticflickr.com/65535/54812700466_c86e3c9311_m.jpg,Stuart Smith.,127349327@N05,photo
2,54483520006,65535,bb61b5b565,"Il Bacaro 1813, Venice, Italy",bar enoteca italy people sms908b samsung venice s22 s22ultra venice2025 wide 20250405133940,28,,2025-04-05 13:39:41,45.432440,12.354851,https://live.staticflickr.com/65535/54483520006_bb61b5b565_m.jpg,wildhareuk,137918669@N08,photo
3,54483519426,65535,2fe4c51ffa,"Il Bacaro 1813, Venice, Italy",bar italy sms908b samsung susan venice glass prosecco s22 s22ultra table venice2025 wide 20250405130307,30,,2025-04-05 13:03:07,45.432493,12.354880,https://live.staticflickr.com/65535/54483519426_2fe4c51ffa_m.jpg,wildhareuk,137918669@N08,photo
4,54480519908,65535,20f605e945,"Via Giuseppe Garibaldi, Venice, Italy",bar italy osteria sms908b samsung venice s22 s22ultra shutter venice2025 wide window 20250405115800,15,,2025-04-05 11:58:00,45.432184,12.352358,https://live.staticflickr.com/65535/54480519908_20f605e945_m.jpg,wildhareuk,137918669@N08,photo
5,54448060390,65535,9236512dfd,"Enoteca Al Volta, Venice, Italy",bar door italy sms908b samsung venice enotecaalvolto exterior s22 s22ultra venice2025 wide 20250402214534,12,,2025-04-02 21:45:34,45.436101,12.333947,https://live.staticflickr.com/65535/54448060390_9236512dfd_m.jpg,wildhareuk,137918669@N08,photo
6,54446828732,65535,a9530ec996,"Enoteca Al Volta, Venice, Italy",bar italy osteria sms908b samsung susan venice chair enotecaalvolto exterior night s22 s22ultra table venice2025 wide 20250402214524,17,,2025-04-02 21:45:26,45.436101,12.333947,https://live.staticflickr.com/65535/54446828732_a9530ec996_m.jpg,wildhareuk,137918669@N08,photo
7,54444870677,65535,f80964857d,"Enoteca Al Volto, Venice, Italy",bar door interior italy osteria sms908b samsung venice enotecaalvolto night s22 s22ultra venice2025 wide 20250401215353,18,,2025-04-01 21:53:54,45.436131,12.333895,https://live.staticflickr.com/65535/54444870677_f80964857d_m.jpg,wildhareuk,137918669@N08,photo
8,54445922009,65535,30d16de453,"Enoteca Al Volto, Venice, Italy",bar ceiling interior italy osteria sms908b samsung venice enotecaalvolto night s22 s22ultra venice2025 wide 20250401215330,23,Ceiling covered with wine labels,2025-04-01 21:53:31,45.436131,12.333895,https://live.staticflickr.com/65535/54445922009_30d16de453_m.jpg,wildhareuk,137918669@N08,photo
9,54445919069,65535,a2822e9e6b,"Enoteca Al Volto, Venice, Italy",bar door italy osteria sms908b samsung venice enotecaalvolto exterior night s22 s22ultra table ultrawide venice2025 20250401213211,18,,2025-04-01 21:32:11,45.436131,12.333895,https://live.staticflickr.com/65535/54445919069_a2822e9e6b_m.jpg,wildhareuk,137918669@N08,photo
10,54280633494,65535,5a8d25dc29,Bar Dandolo,purple venice veneto italy hotel danieli bar dandolo venetian elegance chandeliers ornate ceiling details marble columns plush seating stained glass windows luxury historic architecture ambiance opulence refinement craftsmanship october travel destination hospitality iconic interior design decor artistry grandeur sophistication charm landmark tradition heritage romance style timeless scenic,8592,"Venice, IT",2024-10-14 13:03:23,45.433755,12.341208,https://live.staticflickr.com/65535/54280633494_5a8d25dc29_m.jpg,brianloganphoto,128191152@N04,photo
11,54263140844,65535,2bf67aabf3,"Savoring gin and tonics at Hotel Danieli’s Bar Dandolo, a luxurious Venetian gem.",purple gin tonic hotel danieli bar dandolo venice italy drink schweppes lemon glass ice beverage cocktail luxury elegant atmosphere snacks olives chips table garnish straw bottle tonicwater aperitif classic sophisticated refreshment upscale experience cozy ambiance travel historic style indulgence relaxation drinks leisure barlounge iconic italian scenic social,2102,"Venice, IT",2024-10-14 13:18:58,45.434163,12.343752,https://live.staticflickr.com/65535/54263140844_2bf67aabf3_m.jpg,brianloganphoto,128191152@N04,photo
12,54111599502,65535,469e295726,Venice 102,italy venice streetphotography venezia italia vino vero bar glass,2862,A trip to Venice,2024-11-02 23:00:24,45.444084,12.332936,https://live.staticflickr.com/65535/54111599502_469e295726_m.jpg,WF portraits,71102063@N00,photo
13,54008252452,65535,8916b5513b,"reichhaltiges Craftbier-Menü vom Fass, H2NO Enobirrateca, Venedig",bar bier enobirrateca h2no h2noenobirrateca italia italien vendig venetien veneto venezia venezien venice craftbeer,86,Craft-Beer-Bar H2NO Enobirrateca,2024-07-25 16:05:48,45.443936,12.328647,https://live.staticflickr.com/65535/54008252452_8916b5513b_m.jpg,Georg Brutalis,84521904@N05,photo
14,53928522678,65535,515fdd3e1b,Summer Afternoon At Caffè Florian.,monochrome monochromephotography table bar barphotography florian caffeflorian venice venezia veniceitaly italy italia italianstyle bw blackandwhite bwphotography blackandwhitephotography blackandwhitephoto drink,1903,Italian days.,2007-08-18 20:47:36,45.434180,12.338987,https://live.staticflickr.com/65535/53928522678_515fdd3e1b_m.jpg,Alex Lawrence Photography,190199605@N08,photo
15,53604114139,65535,18337f6eb0,Caffé,juliolópezsaguar italias venecia venice bar caffe café coffeshop neon calle street anónimo anonymous,962,"14-10-2009 Venecia, Italia.  Please, do not use this photo without permission Por Favor no usar esta fotografía sin permiso ",2009-10-14 17:50:59,45.434902,12.338730,https://live.staticflickr.com/65535/53604114139_18337f6eb0_m.jpg,Julio López Saguar,35232195@N06,photo
16,53996380570,65535,628d0645d9,Venezia: Molo di Palazzo Ducale,venecia venezia venice italy veneto ciudadmetropolitanadevenecia bar terraza terrace terraceo restaurant,1634,Venice (Italy),2024-08-25 12:22:38,45.433296,12.339599,https://live.staticflickr.com/65535/53996380570_628d0645d9_m.jpg,Jorge Franganillo,46191841@N00,photo
17,53928522678,65535,515fdd3e1b,Summer Afternoon At Caffè Florian.,monochrome monochromephotography table bar barphotography florian caffeflorian venice venezia veniceitaly italy italia italianstyle bw blackandwhite bwphotography blackandwhitephotography blackandwhitephoto drink,1903,Italian days.,2007-08-18 20:47:36,45.434180,12.338987,https://live.staticflickr.com/65535/53928522678_515fdd3e1b_m.jpg,Alex Lawrence Photography,190199605@N08,photo
18,53143620940,65535,6d6b2a81b0,bar Quadri vs bar Florian,venezia venice venise veneto italy italia notte night nocturne notturna bar dehors tavolini tables gazebo musica live wet bagnato rainy pioggia ombrelloni umbrellas spectacle performance quadri sedie chairs,3892,"A giudicare dai tavoli occupati vince il Quadri ;-)  Venezia - Piazza San Marco in una serata piovosa (SERIE) i due bar sono praticamente uno in faccia all'altro ! (notturna a mano libera)  ------------------------------------------------------------------------------------------- Sorry, to me is very difficult to visit people that always only leave a fav without commenting... ------------------------------------------------------------------------------------------- <i>Do not use any of my images on websites, blogs or other media without my explicit written permission.  All rights reserved - Copyright © fotomie2009 - Nora Caracci</i> -------------------------------------------------------------------------------------------",2022-11-15 20:17:14,45.434241,12.338055,https://live.staticflickr.com/65535/53143620940_6d6b2a81b0_m.jpg,fotomie2009 #NoWar,37176070@N08,photo
19,52831826539,65535,7121102d9b,Cicchetti,venezia street 2023 bar people europe,997,,2023-04-13 09:43:27,45.433703,12.335894,https://live.staticflickr.com/65535/52831826539_7121102d9b_m.jpg,jmsdbg,197246199@N05,photo
20,52806914634,65535,6821075d94,Harry's Bar (1931),bar lamps lights lampioni door deur porte porta tür venetië venedig venice venezia veneto venecia italia italy italien italie italië europe europa building gebouw gebäude bâtiment architectuur architecture architektur arquitectura,5094,"San Marco 1323, Venice, Italy.",2022-03-15 17:03:14,45.432468,12.337194,https://live.staticflickr.com/65535/52806914634_6821075d94_m.jpg,just.Luc,9619972@N08,photo
21,52769732199,65535,55385d07af,Venezia,venezia veneto italia nikon bar interior infoor,3861,Caffé Florian,2022-11-17 19:32:32,45.433786,12.338386,https://live.staticflickr.com/65535/52769732199_55385d07af_m.jpg,Enrica F,153031613@N06,photo
22,52831826539,65535,7121102d9b,Cicchetti,venezia street 2023 bar people europe,997,,2023-04-13 09:43:27,45.433703,12.335894,https://live.staticflickr.com/65535/52831826539_7121102d9b_m.jpg,jmsdbg,197246199@N05,photo
23,52806914634,65535,6821075d94,Harry's Bar (1931),bar lamps lights lampioni door deur porte porta tür venetië venedig venice venezia veneto venecia italia italy italien italie italië europe europa building gebouw gebäude bâtiment architectuur architecture architektur arquitectura,5094,"San Marco 1323, Venice, Italy.",2022-03-15 17:03:14,45.432468,12.337194,https://live.staticflickr.com/65535/52806914634_6821075d94_m.jpg,just.Luc,9619972@N08,photo
24,52674186671,65535,7919988906,Preparation time,panasonicdmctz3 venice cruiseship steward tables chairs bar,192,,2008-10-11 06:40:13,45.442187,12.329921,https://live.staticflickr.com/65535/52674186671_7919988906_m.jpg,Audrey A Jackson,40685807@N08,photo
25,52672946016,65535,ef0aaafdc6,Venezia,venezia veneto italia nikon night nocturna bar music florian,2702,I musicisti del Florian,2022-11-15 19:45:24,45.433733,12.337979,https://live.staticflickr.com/65535/52672946016_ef0aaafdc6_m.jpg,Enrica F,153031613@N06,photo
26,52674186671,65535,7919988906,Preparation time,panasonicdmctz3 venice cruiseship steward tables chairs bar,192,,2008-10-11 06:40:13,45.442187,12.329921,https://live.staticflickr.com/65535/52674186671_7919988906_m.jpg,Audrey A Jackson,40685807@N08,photo
27,52632837797,0,795327840c,Venice 2022 – Singer,singing singer song music bar venetië italy italia venice venedig veneto venezia italië,319,,2022-09-20 19:22:43,45.445358,12.331958,https://live.staticflickr.com/31337/52632837797_795327840c_m.jpg,Michiel2005,39839593@N00,video
28,52632837797,0,795327840c,Venice 2022 – Singer,singing singer song music bar venetië italy italia venice venedig veneto venezia italië,319,,2022-09-20 19:22:43,45.445358,12.331958,https://live.staticflickr.com/31337/52632837797_795327840c_m.jpg,Michiel2005,39839593@N00,video
29,52618188535,65535,9fe92c0426,Venice 2022 – Negroni,negroni cocktail drink alcohol café bar venetië venezia veneto venedig venice italia italy italië,310,"Gin, vermouth and campari in equal amounts.",2022-09-19 17:13:29,45.445358,12.331958,https://live.staticflickr.com/65535/52618188535_9fe92c0426_m.jpg,Michiel2005,39839593@N00,photo
30,52570914740,65535,8fec927fea,Venezia: Caffè Quadri,venecia italia piazzasanmarco venezia venice italy band músicos musicians terrace terraza bar restaurant restaurante plazadesanmarcos café caffèquadri,946,"Piazza San Marco (Venice, Italy)",2017-06-06 22:49:02,45.433974,12.338075,https://live.staticflickr.com/65535/52570914740_8fec927fea_m.jpg,Jorge Franganillo,46191841@N00,photo
31,52544588608,65535,abfa698d6c,The Bird Man of Venice,monochromatic z7 grate nikon art street water bandw italy venice z7ii humour humor cell urban bar monochrome skies pidgeon bird sky black bw blackandwhite mirrorless white,1994,Stumbled across this little street scene in a narrow Venetian back street,2022-11-21 14:47:45,45.435016,12.347036,https://live.staticflickr.com/65535/52544588608_abfa698d6c_m.jpg,Andy J Newman,126771727@N04,photo
32,52544588608,65535,abfa698d6c,The Bird Man of Venice,monochromatic z7 grate nikon art street water bandw italy venice z7ii humour humor cell urban bar monochrome skies pidgeon bird sky black bw blackandwhite mirrorless white,1994,Stumbled across this little street scene in a narrow Venetian back street,2022-11-21 14:47:45,45.435016,12.347036,https://live.staticflickr.com/65535/52544588608_abfa698d6c_m.jpg,Andy J Newman,126771727@N04,photo
33,52538356896,65535,2e8f27622a,Venice 2022 – Pigeon buying food,bar pigeon duif vogel bird animal dier venetië italië venezia veneto venedig venice italia italy,239,"After pigeon feeding was prohibited in Venice, pigeons have to buy food in shops.",2022-09-15 16:26:46,45.439694,12.330486,https://live.staticflickr.com/65535/52538356896_2e8f27622a_m.jpg,Michiel2005,39839593@N00,photo
34,50567654222,65535,05e6a71bff,"San Marco, Venzia",venedig provinzvenedig italien ber16499 venezia venice rosso red rot cafe bar window inside outside sky boat tavola seddia table glass byerwin reflections reflected,8784,,2020-10-24 14:34:16,45.432583,12.337650,https://live.staticflickr.com/65535/50567654222_05e6a71bff_m.jpg,::ErWin,123096458@N03,photo
35,52529112279,65535,a4c618462f,Venice 2022 – Venetians napkins,girani caffè café bar napkin servet venetië italië venezia veneto venedig venice italia italy,224,,2022-09-15 14:13:55,45.440533,12.329708,https://live.staticflickr.com/65535/52529112279_a4c618462f_m.jpg,Michiel2005,39839593@N00,photo
36,52359604665,65535,521e4bf9bd,Fruit Juice,night lights bar street italy fuji venice venezia dark light,306,Venice,2022-09-03 21:53:40,45.434587,12.334460,https://live.staticflickr.com/65535/52359604665_521e4bf9bd_m.jpg,leah.kling,134039647@N02,photo
37,52330782421,65535,2024730b56,"Bacaro Quebrado, Venice, Italy",bar italy people sms908b samsung samsungs22ultra susan venice aperol barstool rearwide s22ultra venice2022 20220612175934,105,Favourite bar near our AirBnB,2022-06-12 17:59:34,45.440276,12.325158,https://live.staticflickr.com/65535/52330782421_2024730b56_m.jpg,wildhareuk,137918669@N08,photo
38,52359604665,65535,521e4bf9bd,Fruit Juice,night lights bar street italy fuji venice venezia dark light,306,Venice,2022-09-03 21:53:40,45.434587,12.334460,https://live.staticflickr.com/65535/52359604665_521e4bf9bd_m.jpg,leah.kling,134039647@N02,photo
39,52330782421,65535,2024730b56,"Bacaro Quebrado, Venice, Italy",bar italy people sms908b samsung samsungs22ultra susan venice aperol barstool rearwide s22ultra venice2022 20220612175934,105,Favourite bar near our AirBnB,2022-06-12 17:59:34,45.440276,12.325158,https://live.staticflickr.com/65535/52330782421_2024730b56_m.jpg,wildhareuk,137918669@N08,photo
40,52201967337,65535,a2ea8a52a9,"Bar, Ponte delle Guglie, Venice",venice 2022 bar,38,,2022-04-08 09:52:17,45.443820,12.325727,https://live.staticflickr.com/65535/52201967337_a2ea8a52a9_m.jpg,Joop van Meer,58308203@N07,photo
41,52183849192,65535,9b93e10b1c,"Bar on the Campiello des Pestrin, Castello, Venice",venice 2022 campiellodelpestrin bar,14,,2022-04-19 14:51:26,45.441208,12.340008,https://live.staticflickr.com/65535/52183849192_9b93e10b1c_m.jpg,Joop van Meer,58308203@N07,photo
42,52183849192,65535,9b93e10b1c,"Bar on the Campiello des Pestrin, Castello, Venice",venice 2022 campiellodelpestrin bar,14,,2022-04-19 14:51:26,45.441208,12.340008,https://live.staticflickr.com/65535/52183849192_9b93e10b1c_m.jpg,Joop van Meer,58308203@N07,photo
43,52180519994,65535,c0280bb78f,"Bar in the Calle de la Rasse, Venice",venice 2022 bar calledelerasse,27,Venrtian specialties: tramezzini.,2022-04-12 11:41:57,45.434485,12.341789,https://live.staticflickr.com/65535/52180519994_c0280bb78f_m.jpg,Joop van Meer,58308203@N07,photo
44,52201967337,65535,a2ea8a52a9,"Bar, Ponte delle Guglie, Venice",venice 2022 bar,38,,2022-04-08 09:52:17,45.443820,12.325727,https://live.staticflickr.com/65535/52201967337_a2ea8a52a9_m.jpg,Joop van Meer,58308203@N07,photo
45,52183849192,65535,9b93e10b1c,"Bar on the Campiello des Pestrin, Castello, Venice",venice 2022 campiellodelpestrin bar,14,,2022-04-19 14:51:26,45.441208,12.340008,https://live.staticflickr.com/65535/52183849192_9b93e10b1c_m.jpg,Joop van Meer,58308203@N07,photo
46,51917137252,65535,e9f351c778,DSCF5931 Bancogiro,venezia italy fujifilm fuji xe4 fujinon xf16mm 28 r wr eterna bleach bypass laguna veneto italia landscape hause home buildings xf27mm sea water venice statue lion black white bw bn canal grande eternableachbypass fujifilmxe4 fujinonxf16mm28rwr bancogiro bar pub,646,"Venezia, Italy ",2022-02-17 10:10:31,45.438875,12.335554,https://live.staticflickr.com/65535/51917137252_e9f351c778_m.jpg,Claudio e Lucia Images around the world,137129299@N07,photo
47,51796273908,65535,cce29df337,cicchetti e cicca II,venezia cicchetto cicca bar smoking venice bacaritour bacaro italianstyle,931,,2021-12-05 17:55:39,45.431429,12.327904,https://live.staticflickr.com/65535/51796273908_cce29df337_m.jpg,GrandecapoEstiCazzi,7833077@N08,photo
48,51917187022,65535,ebb661aea1,DSCF5954 Osteria Bancogiro,venezia italy fujifilm fuji xe4 fujinon xf16mm 28 r wr eterna bleach bypass laguna veneto italia landscape hause home buildings xf27mm sea water venice statue lion black white bw bn canal grande bancogiro bar pub osteriabancogiro eternableachbypass fujifilmxe4 fujinonxf16mm28rwr,2602,"Venezia, Italy ",2022-02-17 10:30:22,45.438687,12.335125,https://live.staticflickr.com/65535/51917187022_ebb661aea1_m.jpg,Claudio e Lucia Images around the world,137129299@N07,photo
49,51918770850,65535,02b1b1771c,DSCF5955 Ceccato shop,venezia italy fujifilm fuji xe4 fujinon xf16mm 28 r wr eterna bleach bypass laguna veneto italia landscape hause home buildings xf27mm sea water venice statue lion black white bw bn canal grande bancogiro bar pub ceccatoshop eternableachbypass fujifilmxe4 fujinonxf16mm28rwr,2714,"Venezia, Italy ",2022-02-17 10:32:21,45.438220,12.335575,https://live.staticflickr.com/65535/51918770850_02b1b1771c_m.jpg,Claudio e Lucia Images around the world,137129299@N07,photo
50,50580881312,65535,86602c2f65,,venezia piazzasanmarco bar tavolini sangiorgio bn biancoenero bw venice italy,601,,2016-05-20 12:14:17,45.433816,12.339309,https://live.staticflickr.com/65535/50580881312_86602c2f65_m.jpg,Almar3000,54024589@N03,photo
51,49996444121,65535,32774b78fc,Pomeriggio Spensierato,venice venezia italy italia historic beautiful city autumn fall november 2017 novembre vacation holiday veneto pomeriggio spensierato carefree afternoon outdoor cafe birds light shadows sun shine beingthere feelsgood snack bar sanvidal,240,"A carefree afternoon on holiday...  Venice, Italy. Wednesday, November 15, 2017.",2017-11-15 09:25:20,45.433748,12.330436,https://live.staticflickr.com/65535/49996444121_32774b78fc_m.jpg,Flint Foto Factory,41701540@N02,photo
52,50687201376,65535,6b9b71f965,Endless Summer Days  At Caffè Florian.,people peoplephotography gens venice venicephotography venezia dailylife life vie father daughter summertime summermoments summerafternoon caffeflorian bar barphotography piazzasanmarco veneziaitalia veneziacity italianvacation italianstyle reading readingphotography readingtime traveldiaries travel travelphotography travelphoto travellovers stmarkssquare,3434,"Italian people on a cruise stop in Venice, Italy.",2007-08-18 21:22:14,45.434180,12.338987,https://live.staticflickr.com/65535/50687201376_6b9b71f965_m.jpg,Alex Lawrence Photography,190199605@N08,photo
53,50580881312,65535,86602c2f65,,venezia piazzasanmarco bar tavolini sangiorgio bn biancoenero bw venice italy,601,,2016-05-20 12:14:17,45.433816,12.339309,https://live.staticflickr.com/65535/50580881312_86602c2f65_m.jpg,Almar3000,54024589@N03,photo
54,50687201376,65535,6b9b71f965,Endless Summer Days  At Caffè Florian.,people peoplephotography gens venice venicephotography venezia dailylife life vie father daughter summertime summermoments summerafternoon caffeflorian bar barphotography piazzasanmarco veneziaitalia veneziacity italianvacation italianstyle reading readingphotography readingtime traveldiaries travel travelphotography travelphoto travellovers stmarkssquare,3434,"Italian people on a cruise stop in Venice, Italy.",2007-08-18 21:22:14,45.434180,12.338987,https://live.staticflickr.com/65535/50687201376_6b9b71f965_m.jpg,Alex Lawrence Photography,190199605@N08,photo
55,50580881312,65535,86602c2f65,,venezia piazzasanmarco bar tavolini sangiorgio bn biancoenero bw venice italy,601,,2016-05-20 12:14:17,45.433816,12.339309,https://live.staticflickr.com/65535/50580881312_86602c2f65_m.jpg,Almar3000,54024589@N03,photo
56,50687201376,65535,6b9b71f965,Endless Summer Days  At Caffè Florian.,people peoplephotography gens venice venicephotography venezia dailylife life vie father daughter summertime summermoments summerafternoon caffeflorian bar barphotography piazzasanmarco veneziaitalia veneziacity italianvacation italianstyle reading readingphotography readingtime traveldiaries travel travelphotography travelphoto travellovers stmarkssquare,3434,"Italian people on a cruise stop in Venice, Italy.",2007-08-18 21:22:14,45.434180,12.338987,https://live.staticflickr.com/65535/50687201376_6b9b71f965_m.jpg,Alex Lawrence Photography,190199605@N08,photo
57,50580881312,65535,86602c2f65,,venezia piazzasanmarco bar tavolini sangiorgio bn biancoenero bw venice italy,601,,2016-05-20 12:14:17,45.433816,12.339309,https://live.staticflickr.com/65535/50580881312_86602c2f65_m.jpg,Almar3000,54024589@N03,photo
58,49996444121,65535,32774b78fc,Pomeriggio Spensierato,venice venezia italy italia historic beautiful city autumn fall november 2017 novembre vacation holiday veneto pomeriggio spensierato carefree afternoon outdoor cafe birds light shadows sun shine beingthere feelsgood snack bar sanvidal,240,"A carefree afternoon on holiday...  Venice, Italy. Wednesday, November 15, 2017.",2017-11-15 09:25:20,45.433748,12.330436,https://live.staticflickr.com/65535/49996444121_32774b78fc_m.jpg,Flint Foto Factory,41701540@N02,photo
59,49782645601,65535,7eeda38e12,Shopping Piacevole,venice venezia italy italia historic beautiful city autumn fall november 2017 novembre vacation holiday veneto tuesday luxury luxurious upscale leisure shopping hotel casanova calle frezzaria 1284 30124 ve bulgari jimmychoo shows store front retail dusk evening beingthere feelsgood ristorante piccolo martini bar,474,"<a href=""https://www.hotelcasanova.it/"" rel=""noreferrer nofollow"">www.hotelcasanova.it/</a>  <a href=""https://www.tripadvisor.com/Restaurant_Review-g187870-d1626605-Reviews-Ristorante_Piccolo_Martini-Venice_Veneto.html"" rel=""noreferrer nofollow"">www.tripadvisor.com/Restaurant_Review-g187870-d1626605-Re...</a>  Venice, Italy. Tuesday, November 14, 2017.",2017-11-14 12:23:53,45.433537,12.336541,https://live.staticflickr.com/65535/49782645601_7eeda38e12_m.jpg,Flint Foto Factory,41701540@N02,photo
60,49023639891,65535,02cc51d6ca,VENEZIA. FONDACO DEI TEDESCHI,ve venezia fondacodeitedeschi bar loungebar alajmo ristorante restaurant fontegodeitedeschi gruppodfs bancone barman clienti clientela ozio tavolini alchiuso locale dallalto panoramica caffè sala salone ambiente pavimento architettura canon eos6dmarkii 6dmarkii canoneos6dmarkii canon6dmarkii franco600d,1972,"OZIO &amp; GEOMETRIE   Pare proprio che a Venezia gli Alajmo si siano trovati bene. Perché dopo aver messo la propria firma in Piazza San Marco, con il caffè Quadri la famiglia stellare ha aperto il nono ristorante del gruppo. Lo ha fatto all’interno del nuovo tempio del lusso lagunare, il T-Fontego dei Tedeschi, un megastore del gruppo DFS (divisione del colosso francese del lusso Lvmh) di 7000 metri quadrati distribuiti su quattro piani, vicinissimi al Canal Grande. L’arredamento è un omaggio a Venezia: bancone e divani (dagli schienali alti capaci di garantire intimità e rilassatezza) sono ispirati al felze delle gondole, i vetri sono ovviamente di Murano mentre il Carnevale è richiamato da fantasie alle pareti.   CANON EOS 6D Mark II con ob. CANON EF 24-85 f./3,5-4,5 USM",2018-09-09 16:19:53,45.438268,12.336637,https://live.staticflickr.com/65535/49023639891_02cc51d6ca_m.jpg,FRANCO600D,64148082@N02,photo
61,49003241356,65535,030f727b1e,"Venice, Italy",venice italy bar samsung s7 alsquero smg935f venice2019 samsungs7 20190625152943 galaxys7edge,49,Osteria Al Squero,2019-06-25 15:29:43,45.430000,12.326111,https://live.staticflickr.com/65535/49003241356_030f727b1e_m.jpg,wildhareuk,137918669@N08,photo
62,49659898923,65535,ddc6315152,venice,italy italia venezia venice shop bar silhouette tree park sunset sunrise ponte bridge isola island party landscape carl zeiss batis batis225 sony alpha ilce 7rm2 7rii amazing view panorama beautiful stunning wood winter tourist outdoor allaperto cielo skyline paesaggio night rstreet lamp,8018,,2019-12-24 08:31:46,45.438239,12.319450,https://live.staticflickr.com/65535/49659898923_ddc6315152_m.jpg,Roberto.Trombetta,29370225@N03,photo
63,49651855587,65535,e50764167c,VENEZIA. IL BAR AL FONDACO DEI TEDESCHI.,bar emergenza coronavirus ve venezia venecia venice venedig locale fondacodeitedeschi coppia couple duo allclosed tuttochiuso commercio crisi virus nordest canon eos6dmarkii 6dmarkii canoneos6dmarkii canon6dmarkii franco600d 1001nightsthenew,4175,"TUTTO CHIUSO. ALL CLOSED.   Emergenza coronavirus | Chiusi tutti negozi e ristoranti | Aperti alimentari e farmacie „Nuove misure per l'emergenza coronavirus. Il presidente del consiglio, Giuseppe Conte, ha disposto, nella serata di oggi, mercoledì 11 marzo 2020, la chiusura di tutte le attività commerciali ad eccezione dei negozi di alimentari, delle farmacie e delle parafarmacie. Chiusi negozi, bar, pub, ristoranti (ferma restando la possibilità di consegna a domicilio), parrucchieri, centri estetici, mense. reparti aziendali non indispensabili per la produzione. Le industrie potranno continuare a lavorare a condizione che assumano necessarie misure di sicurezza che impediscano il contagio. Restano garantiti i trasporti e i servizi bancari, postali, finanziari e assicurativi, nonché le attività del settore agricolo e zootecnico. Aperti anche edicole, tabaccai, meccanici, benzinai nonché i liberi professionisti e le imprese che offrono servizi essenziali, come ad esempio gli idraulici. Per quanto riguarda i mercati rionali, invece, la decisione spetterà ai sindaci.“ ------------------------------------------------------  Coronavirus emergency | All shops and restaurants closed Open food and pharmacies „New measures for the coronavirus emergency. The chairman of the board, Giuseppe Conte, ordered today, Wednesday 11 March 2020, the closure of all commercial activities with the exception of grocery stores, pharmacies and parapharmacies. Closed shops, bars, pubs, restaurants (without prejudice to the possibility of home delivery), hairdressers, beauty centers, canteens. business departments not indispensable for production. Industries will be able to continue working on the condition that they take necessary safety measures that prevent contagion. Transport and banking, postal, financial and insurance services are guaranteed, as well as the activities of the agricultural and zootechnical sector. Newsagents, tobacconists, mechanics, petrol stations as well as freelancers and companies offering essential services, such as plumbers, are also open. As for the local markets, however, the decision will be up to the mayors. &quot;  ------------------------------------------------------------------------  CANON EOS 6D Mark II con ob. CANON EF 70-300 f./4-5,6 IS USM",2018-09-09 16:46:25,45.438265,12.336627,https://live.staticflickr.com/65535/49651855587_e50764167c_m.jpg,FRANCO600D,64148082@N02,photo
64,49280844581,65535,22dc9628a6,Corner Pub,venice italy italia veneto venezia corner pub wine bar beer street stool tourists,262,Venice Italy,2019-10-06 13:22:40,45.430510,12.330629,https://live.staticflickr.com/65535/49280844581_22dc9628a6_m.jpg,Nigel Musgrove-4.5 million views-thank you!,51707647@N05,photo
65,49127853763,65535,f80950c5a6,VENEZIA. FONDACO DEI TEDESCHI.,ve venezia venecia venedig venice serenissima fondacodeitedeschi fondaco palazzo palace amo alajmo store negozio boutique shopping moda cortile atrio ristorante restaurant bar commercio rialto italia italy italie italien bellitalia canon eos6dmarkii 6dmarkii canoneos6dmarkii canon6dmarkii franco600d fotocomposizione archi volte architettura turisti tourist clienti,1941,"IL QUADRATO DEL LUSSO MONDIALE.   Situato ai piedi del Ponte di Rialto di Venezia, nell’atrio di uno spazio di rara bellezza, il rinnovato T Fondaco dei Tedeschi, AMO è il frutto della collaborazione tra i fratelli Alajmo e il designer Philippe Starck.  Il palazzo è uno dei centri per lo shopping di lusso più belli e cool del mondo, merito di una location unica, che racchiude nelle sue mura antiche, silenziose testimoni di secoli di scambi commerciali, 7.000 metri quadri di negozi e boutique che espongono accessori di moda, orologi, gioielli, prodotti beauty ma anche un’ampia selezione di artigianato locale, cibo e vini. Costruito nel XIII come punto d’approdo per le merci trasportate dai mercanti tedeschi, il palazzo venne interamente ricostruito nel 1508, dopo la sua distruzione causata da un incendio. Nel corso dei secoli, la destinazione d’uso del Fondaco dei Tedeschi è mutata e con essa è cambiato anche l’aspetto strutturale del palazzo: sono state demolite, ad esempio, le torrette laterali, mentre il cortile interno è stato coperto.   FOTOCOMPOSIZIONE realizzata con l'unione di 18 immagini.   CANON EOS 6D Mark II con ob. CANON EF 24-85 f./3,5-4,5 USM",2018-09-09 16:12:55,45.438268,12.336637,https://live.staticflickr.com/65535/49127853763_f80950c5a6_m.jpg,FRANCO600D,64148082@N02,photo
66,49062054471,65535,dd06d29e07,"Venice, Italy",venice italy bar samsung receipt s7 samsungs7 smg935f venice2019 20190626202738 galaxys7edge,80,Bar Giorgio - receipt 12 Euros for two drinks,2019-06-26 20:27:38,45.439722,12.340555,https://live.staticflickr.com/65535/49062054471_dd06d29e07_m.jpg,wildhareuk,137918669@N08,photo
67,49028111262,65535,5dc0d22a70,Venezia / Campo San Polo / Bar La Corte,venise italie europe ville place campo piazza sanpolo bar café terrasse barlacorte formatcarré,3978,<b>© 2019 François de Nodrest / Pantchoa - All rights reserved.</b>,2019-09-30 12:10:24,45.437769,12.329966,https://live.staticflickr.com/65535/49028111262_5dc0d22a70_m.jpg,Pantchoa,34096574@N06,photo
68,49106920052,65535,832a1e485d,Hard Rock Cafe Bar,italia hardrockcafe bar 2019 italy april2019 venice venezia afsdxvrzoomnikkor18105mmf3556ged,461,The song (and video) to Smash Mouth's &quot;Walkin' On The Sun&quot; is playing in the background.,2019-04-25 16:41:57,45.434082,12.336768,https://live.staticflickr.com/65535/49106920052_832a1e485d_m.jpg,Joe Shlabotnik,40646519@N00,photo
69,49106221478,65535,6607278133,Hard Rock Cafe Bar,italia hardrockcafe bar 2019 italy april2019 venice venezia afsdxvrzoomnikkor18105mmf3556ged,459,The song (and video) to Smash Mouth's &quot;Walkin' On The Sun&quot; is playing in the background.,2019-04-25 16:41:55,45.434082,12.336768,https://live.staticflickr.com/65535/49106221478_6607278133_m.jpg,Joe Shlabotnik,40646519@N00,photo
70,48558727862,65535,e9d3848de1,Al Chioschetto,italia イタリア 2019 舞台探訪 聖地巡礼 ラブライブ ラブライブサンシャイン italy lovelive ラブライブ聖地巡礼 イタリア聖地巡礼 venice venezia ベネチア ヴェネツィア ベニス riko sakurauchi sakurauchiriko 桜内梨子 aqours rikosakurauchi 梨子ちゃん 劇場版聖地巡礼 veniceitaly veneziaitalia august2019 ラブライブサンシャイン聖地巡礼 bar pub パブ バー chioschetto alchioschetto パニーノ パニーニ スクフェス スクールアイドルフェスティバル スクフェスac lovelivesunshine ロケ地巡り イタリアベネチア 2019年 イタリア旅行 伊太利亜 kawaii jk おんな 女子高校生 schoolidol らぶらいぶ スクールアイドル 女子高生 令和元年 r1 201908 令和1年 2019年8月 イタリアヴェネツィア 베네토주 veneto 威尼斯 베네치아 เวนิส แคว้นเวเนโต ヴェネト 可愛い 女の子,192,Al Chioschetto,2019-08-13 11:56:18,45.430336,12.323336,https://live.staticflickr.com/65535/48558727862_e9d3848de1_m.jpg,Kanesue,36749444@N06,photo
71,48558589726,65535,34f5f23178,Al Chioschetto,italy italia イタリア 2019 lovelive 舞台探訪 聖地巡礼 ラブライブ ラブライブサンシャイン ラブライブ聖地巡礼 イタリア聖地巡礼 venice venezia ベネチア ヴェネツィア ベニス riko sakurauchi sakurauchiriko 桜内梨子 aqours rikosakurauchi 梨子ちゃん veniceitaly veneziaitalia august2019 ラブライブサンシャイン聖地巡礼 劇場版聖地巡礼 bar pub パブ バー chioschetto alchioschetto パニーノ パニーニ スクフェス スクールアイドルフェスティバル スクフェスac lovelivesunshine ロケ地巡り イタリアベネチア 2019年 イタリア旅行 伊太利亜 おんな 女子高校生 schoolidol kawaii jk 女子高生 らぶらいぶ スクールアイドル 令和元年 r1 201908 令和1年 2019年8月 veneto 威尼斯 베네치아 เวนิส イタリアヴェネツィア 베네토주 แคว้นเวเนโต ヴェネト 可愛い 女の子,214,Al Chioschetto,2019-08-13 11:56:47,45.430336,12.323336,https://live.staticflickr.com/65535/48558589726_34f5f23178_m.jpg,Kanesue,36749444@N06,photo
72,48960207997,65535,54dc95737c,"Venice, Italy",bar canon canoneos500d italy osteria square susan tamron18270mm venice venice2019 beer tamron wine img9934dxo,50,Bar Baraonda - Large wine and larger beer - it was very hot!,2019-06-24 15:55:28,45.434595,12.346909,https://live.staticflickr.com/65535/48960207997_54dc95737c_m.jpg,wildhareuk,137918669@N08,photo
73,48882394811,65535,9fb86aaa96,VENEZIA. BAR DEL CENTRO.,venezia venecia venice venedig ve veneto bar barista locale tatuaggi giovane lettura libro assorto concentrato canon eos6dmarkii 6dmarkii canoneos6dmarkii canon6dmarkii franco600d,4140,"I TEMPI MORTI POSSONO ESSERE VIVI.   Venezia ospita fra i 23 e i 25 milioni di visitatori all’anno. A questi vanno sommati i “gitanti giornalieri” (con treno e auto) e poi i circa 3 milioni l’anno di cosiddetti «falsi escursionisti» (chi pur visitando la città pernotta in terraferma). Venezia è costruita tutta in superficie, è appoggiata sul fango, i suoi abitanti sono le persone più superficiali del mondo: non vuol dire che siano frivoli, ma sono costretti a fare i conti con la realtà esteriore, senza nicchie dove rintanarsi a preservare la loro identità. Le altre città hanno metropolitane, cantine, catacombe, bunker. Qui non ci sono rifugi antituristi per proteggersi dai bombardamenti aerei di comitive low cost.  Non c’è scampo. Trenta milioni di turisti all’anno, in una post-città in cui tutto è sempre di più in funzione loro. Gli abitanti sono sempre di meno. Oggi siamo cinquantatremila. Come Gallarate, Velletri, Aversa. Venezia è già stata venduta. Intorno a San Marco il 99% dei ristoranti è gestito da cinesi, albanesi e mediorientali. Nel resto della città solo la metà è in mano a imprenditori locali   CANON EOS 6DMark II con ob. CANON EF 24-85 f./3,5-4,5 USM",2018-09-09 14:28:33,45.436100,12.325544,https://live.staticflickr.com/65535/48882394811_9fb86aaa96_m.jpg,FRANCO600D,64148082@N02,photo
74,49003241356,65535,030f727b1e,"Venice, Italy",venice italy bar samsung s7 alsquero smg935f venice2019 samsungs7 20190625152943 galaxys7edge,49,Osteria Al Squero,2019-06-25 15:29:43,45.430000,12.326111,https://live.staticflickr.com/65535/49003241356_030f727b1e_m.jpg,wildhareuk,137918669@N08,photo
75,48993071811,65535,eeb56e055c,IMG_2357,venice cafe jesus comunista bar,31,,2019-08-22 13:38:18,45.433236,12.352977,https://live.staticflickr.com/65535/48993071811_eeb56e055c_m.jpg,Paradiso's,16978339@N03,photo
76,48960207997,65535,54dc95737c,"Venice, Italy",bar canon canoneos500d italy osteria square susan tamron18270mm venice venice2019 beer tamron wine img9934dxo,50,Bar Baraonda - Large wine and larger beer - it was very hot!,2019-06-24 15:55:28,45.434595,12.346909,https://live.staticflickr.com/65535/48960207997_54dc95737c_m.jpg,wildhareuk,137918669@N08,photo
77,48882394811,65535,9fb86aaa96,VENEZIA. BAR DEL CENTRO.,venezia venecia venice venedig ve veneto bar barista locale tatuaggi giovane lettura libro assorto concentrato canon eos6dmarkii 6dmarkii canoneos6dmarkii canon6dmarkii franco600d,4140,"I TEMPI MORTI POSSONO ESSERE VIVI.   Venezia ospita fra i 23 e i 25 milioni di visitatori all’anno. A questi vanno sommati i “gitanti giornalieri” (con treno e auto) e poi i circa 3 milioni l’anno di cosiddetti «falsi escursionisti» (chi pur visitando la città pernotta in terraferma). Venezia è costruita tutta in superficie, è appoggiata sul fango, i suoi abitanti sono le persone più superficiali del mondo: non vuol dire che siano frivoli, ma sono costretti a fare i conti con la realtà esteriore, senza nicchie dove rintanarsi a preservare la loro identità. Le altre città hanno metropolitane, cantine, catacombe, bunker. Qui non ci sono rifugi antituristi per proteggersi dai bombardamenti aerei di comitive low cost.  Non c’è scampo. Trenta milioni di turisti all’anno, in una post-città in cui tutto è sempre di più in funzione loro. Gli abitanti sono sempre di meno. Oggi siamo cinquantatremila. Come Gallarate, Velletri, Aversa. Venezia è già stata venduta. Intorno a San Marco il 99% dei ristoranti è gestito da cinesi, albanesi e mediorientali. Nel resto della città solo la metà è in mano a imprenditori locali   CANON EOS 6DMark II con ob. CANON EF 24-85 f./3,5-4,5 USM",2018-09-09 14:28:33,45.436100,12.325544,https://live.staticflickr.com/65535/48882394811_9fb86aaa96_m.jpg,FRANCO600D,64148082@N02,photo
78,48960216612,65535,404f424ca7,"Venice, Italy",bar canon canoneos500d italy sign tamron18270mm venice venice2019 tamron img9944dxo,45,Bar Baraonda,2019-06-24 16:35:50,45.434689,12.346626,https://live.staticflickr.com/65535/48960216612_404f424ca7_m.jpg,wildhareuk,137918669@N08,photo
79,48960207997,65535,54dc95737c,"Venice, Italy",bar canon canoneos500d italy osteria square susan tamron18270mm venice venice2019 beer tamron wine img9934dxo,50,Bar Baraonda - Large wine and larger beer - it was very hot!,2019-06-24 15:55:28,45.434595,12.346909,https://live.staticflickr.com/65535/48960207997_54dc95737c_m.jpg,wildhareuk,137918669@N08,photo
80,48558739997,65535,e4e4c68ceb,Al Chioschetto,ラブライブサンシャイン イタリア 2019 聖地巡礼 舞台探訪 ラブライブ ラブライブ聖地巡礼 イタリア聖地巡礼 ベネチア ベニス ヴェネツィア 梨子ちゃん riko rikosakurauchi sakurauchi 桜内梨子 sakurauchiriko 劇場版聖地巡礼 ラブライブサンシャイン聖地巡礼 veneziaitalia veniceitaly chioschetto alchioschetto パブ bar pub バー パニーノ スクフェスac パニーニ スクフェス スクールアイドルフェスティバル イタリアベネチア ロケ地巡り 2019年 イタリア旅行 伊太利亜 女子高校生 schoolidol aqours おんな kawaii らぶらいぶ スクールアイドル jk 女子高生 令和元年 august2019 令和1年 2019年8月 201908 イタリアヴェネツィア venezia r1 베네토주 venice lovelive italia lovelivesunshine italy แคว้นเวเนโต 威尼斯 veneto 베네치아 เวนิส ヴェネト,193,Al Chioschetto,2019-08-13 11:55:52,45.430336,12.323336,https://live.staticflickr.com/65535/48558739997_e4e4c68ceb_m.jpg,Kanesue,36749444@N06,photo
81,48558727862,65535,e9d3848de1,Al Chioschetto,italia イタリア 2019 舞台探訪 聖地巡礼 ラブライブ ラブライブサンシャイン italy lovelive ラブライブ聖地巡礼 イタリア聖地巡礼 venice venezia ベネチア ヴェネツィア ベニス riko sakurauchi sakurauchiriko 桜内梨子 aqours rikosakurauchi 梨子ちゃん 劇場版聖地巡礼 veniceitaly veneziaitalia august2019 ラブライブサンシャイン聖地巡礼 bar pub パブ バー chioschetto alchioschetto パニーノ パニーニ スクフェス スクールアイドルフェスティバル スクフェスac lovelivesunshine ロケ地巡り イタリアベネチア 2019年 イタリア旅行 伊太利亜 kawaii jk おんな 女子高校生 schoolidol らぶらいぶ スクールアイドル 女子高生 令和元年 r1 201908 令和1年 2019年8月 イタリアヴェネツィア 베네토주 veneto 威尼斯 베네치아 เวนิส แคว้นเวเนโต ヴェネト 可愛い 女の子,192,Al Chioschetto,2019-08-13 11:56:18,45.430336,12.323336,https://live.staticflickr.com/65535/48558727862_e9d3848de1_m.jpg,Kanesue,36749444@N06,photo
82,48558589726,65535,34f5f23178,Al Chioschetto,italy italia イタリア 2019 lovelive 舞台探訪 聖地巡礼 ラブライブ ラブライブサンシャイン ラブライブ聖地巡礼 イタリア聖地巡礼 venice venezia ベネチア ヴェネツィア ベニス riko sakurauchi sakurauchiriko 桜内梨子 aqours rikosakurauchi 梨子ちゃん veniceitaly veneziaitalia august2019 ラブライブサンシャイン聖地巡礼 劇場版聖地巡礼 bar pub パブ バー chioschetto alchioschetto パニーノ パニーニ スクフェス スクールアイドルフェスティバル スクフェスac lovelivesunshine ロケ地巡り イタリアベネチア 2019年 イタリア旅行 伊太利亜 おんな 女子高校生 schoolidol kawaii jk 女子高生 らぶらいぶ スクールアイドル 令和元年 r1 201908 令和1年 2019年8月 veneto 威尼斯 베네치아 เวนิส イタリアヴェネツィア 베네토주 แคว้นเวเนโต ヴェネト 可愛い 女の子,214,Al Chioschetto,2019-08-13 11:56:47,45.430336,12.323336,https://live.staticflickr.com/65535/48558589726_34f5f23178_m.jpg,Kanesue,36749444@N06,photo
83,48558584386,65535,6bc17cfe8f,Al Chioschetto,ラブライブサンシャイン イタリア 2019 聖地巡礼 舞台探訪 ラブライブ ラブライブ聖地巡礼 イタリア聖地巡礼 ベネチア ベニス ヴェネツィア 劇場版聖地巡礼 ラブライブサンシャイン聖地巡礼 veneziaitalia veniceitaly chioschetto sakurauchiriko alchioschetto パブ sakurauchi 梨子ちゃん bar pub バー riko 桜内梨子 パニーノ スクフェスac パニーニ スクフェス スクールアイドルフェスティバル イタリアベネチア ロケ地巡り 2019年 イタリア旅行 伊太利亜 女子高校生 schoolidol aqours おんな kawaii らぶらいぶ スクールアイドル jk 女子高生 令和元年 august2019 令和1年 2019年8月 201908 イタリアヴェネツィア venezia r1 베네토주 venice lovelive italia lovelivesunshine italy แคว้นเวเนโต 威尼斯 veneto 베네치아 เวนิส ヴェネト 女の子 可愛い rikosakurauchi,209,Al Chioschetto,2019-08-13 11:57:54,45.430336,12.323336,https://live.staticflickr.com/65535/48558584386_6bc17cfe8f_m.jpg,Kanesue,36749444@N06,photo
84,48558589726,65535,34f5f23178,Al Chioschetto,italy italia イタリア 2019 lovelive 舞台探訪 聖地巡礼 ラブライブ ラブライブサンシャイン ラブライブ聖地巡礼 イタリア聖地巡礼 venice venezia ベネチア ヴェネツィア ベニス riko sakurauchi sakurauchiriko 桜内梨子 aqours rikosakurauchi 梨子ちゃん veniceitaly veneziaitalia august2019 ラブライブサンシャイン聖地巡礼 劇場版聖地巡礼 bar pub パブ バー chioschetto alchioschetto パニーノ パニーニ スクフェス スクールアイドルフェスティバル スクフェスac lovelivesunshine ロケ地巡り イタリアベネチア 2019年 イタリア旅行 伊太利亜 おんな 女子高校生 schoolidol kawaii jk 女子高生 らぶらいぶ スクールアイドル 令和元年 r1 201908 令和1年 2019年8月 veneto 威尼斯 베네치아 เวนิส イタリアヴェネツィア 베네토주 แคว้นเวเนโต ヴェネト 可愛い 女の子,214,Al Chioschetto,2019-08-13 11:56:47,45.430336,12.323336,https://live.staticflickr.com/65535/48558589726_34f5f23178_m.jpg,Kanesue,36749444@N06,photo
85,48558584386,65535,6bc17cfe8f,Al Chioschetto,ラブライブサンシャイン イタリア 2019 聖地巡礼 舞台探訪 ラブライブ ラブライブ聖地巡礼 イタリア聖地巡礼 ベネチア ベニス ヴェネツィア 劇場版聖地巡礼 ラブライブサンシャイン聖地巡礼 veneziaitalia veniceitaly chioschetto sakurauchiriko alchioschetto パブ sakurauchi 梨子ちゃん bar pub バー riko 桜内梨子 パニーノ スクフェスac パニーニ スクフェス スクールアイドルフェスティバル イタリアベネチア ロケ地巡り 2019年 イタリア旅行 伊太利亜 女子高校生 schoolidol aqours おんな kawaii らぶらいぶ スクールアイドル jk 女子高生 令和元年 august2019 令和1年 2019年8月 201908 イタリアヴェネツィア venezia r1 베네토주 venice lovelive italia lovelivesunshine italy แคว้นเวเนโต 威尼斯 veneto 베네치아 เวนิส ヴェネト 女の子 可愛い rikosakurauchi,209,Al Chioschetto,2019-08-13 11:57:54,45.430336,12.323336,https://live.staticflickr.com/65535/48558584386_6bc17cfe8f_m.jpg,Kanesue,36749444@N06,photo
86,48558551856,65535,fb68181e17,Al Chioschetto,ラブライブサンシャイン イタリア 2019 聖地巡礼 舞台探訪 ラブライブ ラブライブ聖地巡礼 イタリア聖地巡礼 ベネチア ベニス ヴェネツィア 梨子ちゃん riko sakurauchi 桜内梨子 sakurauchiriko 劇場版聖地巡礼 ラブライブサンシャイン聖地巡礼 veneziaitalia veniceitaly chioschetto alchioschetto パブ bar pub バー パニーノ スクフェスac パニーニ スクフェス スクールアイドルフェスティバル イタリアベネチア ロケ地巡り 2019年 イタリア旅行 伊太利亜 女子高校生 schoolidol aqours おんな kawaii らぶらいぶ スクールアイドル jk 女子高生 令和元年 august2019 令和1年 2019年8月 201908 イタリアヴェネツィア venezia r1 베네토주 venice lovelive italia lovelivesunshine italy แคว้นเวเนโต 威尼斯 veneto 베네치아 เวนิส ヴェネト 女の子 可愛い rikosakurauchi,198,Al Chioschetto,2019-08-13 11:58:06,45.430336,12.323336,https://live.staticflickr.com/65535/48558551856_fb68181e17_m.jpg,Kanesue,36749444@N06,photo
87,48558528221,65535,9eda68f93e,Al Chioschetto,ラブライブサンシャイン イタリア 2019 聖地巡礼 舞台探訪 ラブライブ ラブライブ聖地巡礼 イタリア聖地巡礼 ベネチア ベニス ヴェネツィア 劇場版聖地巡礼 ラブライブサンシャイン聖地巡礼 veneziaitalia veniceitaly chioschetto sakurauchiriko aqours alchioschetto パブ sakurauchi 梨子ちゃん bar pub rikosakurauchi バー riko 桜内梨子 パニーノ スクフェスac パニーニ スクフェス スクールアイドルフェスティバル イタリアベネチア ロケ地巡り 2019年 イタリア旅行 伊太利亜 令和元年 august2019 令和1年 2019年8月 201908 イタリアヴェネツィア venezia r1 베네토주 venice lovelive italia lovelivesunshine italy แคว้นเวเนโต 威尼斯 veneto 베네치아 เวนิส ヴェネト,116,Al Chioschetto,2019-08-13 11:58:14,45.430336,12.323336,https://live.staticflickr.com/65535/48558528221_9eda68f93e_m.jpg,Kanesue,36749444@N06,photo
88,48207754266,65535,a49ffe311b,The Irish Pub Venezia,window streetphotography venice italy italia venezia restaurant bar scènederue fotodistrada night,2516,"Venice, Italy",2019-02-07 20:56:54,45.441550,12.334116,https://live.staticflickr.com/65535/48207754266_a49ffe311b_m.jpg,Pierrot le chat,41005569@N08,photo
89,48160212576,65535,3c5f357186,Arcicchetti Bakaro: Aperol Spritz / Arcicchetti Bakaro: Aperol Spritz,italia italy veneto venezia venice bar barman glass bicchiere spritz aperol,370,,2019-06-28 21:58:39,45.437763,12.321225,https://live.staticflickr.com/65535/48160212576_3c5f357186_m.jpg,Luigi Rosa,30571787@N00,photo
90,48558521771,65535,ffca0d2fef,Al Chioschetto,ラブライブサンシャイン イタリア 2019 聖地巡礼 舞台探訪 ラブライブ ラブライブ聖地巡礼 イタリア聖地巡礼 ベネチア ベニス ヴェネツィア 劇場版聖地巡礼 ラブライブサンシャイン聖地巡礼 veneziaitalia veniceitaly chioschetto sakurauchiriko aqours alchioschetto パブ sakurauchi 梨子ちゃん bar pub rikosakurauchi バー riko 桜内梨子 パニーノ スクフェスac パニーニ スクフェス スクールアイドルフェスティバル イタリアベネチア ロケ地巡り 2019年 イタリア旅行 伊太利亜 令和元年 august2019 令和1年 2019年8月 201908 イタリアヴェネツィア venezia r1 베네토주 venice lovelive italia lovelivesunshine italy แคว้นเวเนโต 威尼斯 veneto 베네치아 เวนิส ヴェネト,111,Al Chioschetto,2019-08-13 11:55:48,45.430336,12.323336,https://live.staticflickr.com/65535/48558521771_ffca0d2fef_m.jpg,Kanesue,36749444@N06,photo
91,48558650777,65535,86e6572ebc,Al Chioschetto,ラブライブサンシャイン イタリア 2019 聖地巡礼 舞台探訪 ラブライブ ラブライブ聖地巡礼 イタリア聖地巡礼 ベネチア ベニス ヴェネツィア 梨子ちゃん riko rikosakurauchi sakurauchi 桜内梨子 sakurauchiriko 劇場版聖地巡礼 ラブライブサンシャイン聖地巡礼 veneziaitalia veniceitaly chioschetto alchioschetto パブ bar pub バー パニーノ スクフェスac パニーニ スクフェス スクールアイドルフェスティバル イタリアベネチア ロケ地巡り 2019年 イタリアヴェネツィア イタリア旅行 伊太利亜 女子高校生 schoolidol aqours おんな kawaii らぶらいぶ スクールアイドル jk 女子高生 令和元年 august2019 令和1年 2019年8月 201908 venezia r1 베네토주 venice lovelive italia lovelivesunshine italy แคว้นเวเนโต 威尼斯 veneto 베네치아 เวนิส ヴェネト,205,Al Chioschetto,2019-08-13 11:55:59,45.430336,12.323336,https://live.staticflickr.com/65535/48558650777_86e6572ebc_m.jpg,Kanesue,36749444@N06,photo
92,48207754266,65535,a49ffe311b,The Irish Pub Venezia,window streetphotography venice italy italia venezia restaurant bar scènederue fotodistrada night,2516,"Venice, Italy",2019-02-07 20:56:54,45.441550,12.334116,https://live.staticflickr.com/65535/48207754266_a49ffe311b_m.jpg,Pierrot le chat,41005569@N08,photo
93,48160212576,65535,3c5f357186,Arcicchetti Bakaro: Aperol Spritz / Arcicchetti Bakaro: Aperol Spritz,italia italy veneto venezia venice bar barman glass bicchiere spritz aperol,370,,2019-06-28 21:58:39,45.437763,12.321225,https://live.staticflickr.com/65535/48160212576_3c5f357186_m.jpg,Luigi Rosa,30571787@N00,photo
94,48558555487,65535,1429e3b40e,Al Chioschetto,イタリア ラブライブサンシャイン italy italia 2019 lovelive 舞台探訪 聖地巡礼 ラブライブ ラブライブ聖地巡礼 イタリア聖地巡礼 venezia venice ベネチア ヴェネツィア ベニス riko sakurauchi sakurauchiriko 桜内梨子 aqours rikosakurauchi 梨子ちゃん veniceitaly veneziaitalia august2019 ラブライブサンシャイン聖地巡礼 劇場版聖地巡礼 bar pub パブ バー chioschetto alchioschetto パニーノ パニーニ スクフェス スクールアイドルフェスティバル スクフェスac lovelivesunshine ロケ地巡り イタリアベネチア 2019年 イタリア旅行 伊太利亜 おんな 女子高校生 schoolidol kawaii jk 女子高生 らぶらいぶ スクールアイドル 令和元年 r1 201908 令和1年 2019年8月 イタリアヴェネツィア 베네토주 veneto 威尼斯 베네치아 เวนิส แคว้นเวเนโต ヴェネト 可愛い 女の子,192,Al Chioschetto,2019-08-13 11:56:21,45.430336,12.323336,https://live.staticflickr.com/65535/48558555487_1429e3b40e_m.jpg,Kanesue,36749444@N06,photo
95,48558411146,65535,8cb966cbf8,Al Chioschetto,italy italia イタリア 2019 lovelive 舞台探訪 聖地巡礼 ラブライブ ラブライブサンシャイン ラブライブ聖地巡礼 イタリア聖地巡礼 venice venezia ベネチア ヴェネツィア ベニス riko sakurauchi sakurauchiriko 桜内梨子 aqours rikosakurauchi 梨子ちゃん veniceitaly veneziaitalia august2019 ラブライブサンシャイン聖地巡礼 劇場版聖地巡礼 bar pub パブ バー chioschetto alchioschetto パニーノ パニーニ スクフェス スクールアイドルフェスティバル スクフェスac lovelivesunshine ロケ地巡り イタリアベネチア 2019年 イタリア旅行 伊太利亜 kawaii jk 女子高生 おんな 女子高校生 schoolidol らぶらいぶ スクールアイドル 令和元年 201908 令和1年 2019年8月 r1 veneto 威尼斯 베네치아 เวนิส イタリアヴェネツィア 베네토주 แคว้นเวเนโต ヴェネト 可愛い 女の子,200,Al Chioschetto,2019-08-13 11:57:49,45.430336,12.323336,https://live.staticflickr.com/65535/48558411146_8cb966cbf8_m.jpg,Kanesue,36749444@N06,photo
96,47085655691,7850,683cf6320d,"Venice, Italy",venice venezia venise italy night restaurant streetphotography scènederue afaceinthewindow window bar,2714,"“If most of us valued food and cheer and song above hoarded gold, it would be a merrier world.” ― J.R.R. Tolkien, The Hobbit",2019-02-07 18:13:07,45.435416,12.338826,https://live.staticflickr.com/7850/47085655691_683cf6320d_m.jpg,Pierrot le chat,41005569@N08,photo
97,46407904281,4880,5253224994,VENEZIA. NOTTURNO IN PIAZZA SAN MARCO,ve venezia venedig venice venecia veneto notturno night notte piazzasanmarco piazza plaza square sanmarcosquare bar barcaffè restaurant music musica pianobar canon eos600d sigma franco600d,6003,"MUSICA PER POCHI .   Un caffè espresso seduto ammirando la Basilica di San Marco e una delle piazze più belle del mondo, con il sottofondo di un’orchestrina? Costa 11 euro e 50. È successo, succede tutti i giorni e annunciato dal listino, al Gran Caffè Lavena, uno dei locali storici più famosi di Piazza San Marco.  Ha fatto il giro del web lo scontrino staccato nel pomeriggio di mercoledì 1° agosto a dei turisti. Segna 43 euro per due espressi e due mini bottiglie di acqua San Pellegrino da 0,25 l.   CANON EOS 600D con ob. SIGMA 10-20 f./4-5,6 EX DC HSM",2016-11-07 19:37:49,45.434316,12.338021,https://live.staticflickr.com/4880/46407904281_5253224994_m.jpg,FRANCO600D,64148082@N02,photo
98,40196468444,785,8f2b879746,Caffè Florian,venezia venice carnevale carneval carnival carnaval italia italy costume people girl women man uomo ladies signore ragazze donne ritratti portrait selfie 2018 luci light costumi maschere bar,4090,The Cafè in Venice Since 1720. ,2018-02-09 19:02:34,45.433729,12.338472,https://live.staticflickr.com/785/40196468444_8f2b879746_m.jpg,R.o.b.e.r.t.o.,53699812@N00,photo
99,25083777628,65535,b730158060,"Devil's Forest Pub,  Calle dei Stagneri O de la Fava, Venice, Italy",geo:lat=4543729500 1991 bar devilsforestpub geo:lon=1233687557 httpstudiaphotos inn ita italy pub sestièredisanmarco signs stuartsmith stuartsmithstudiaphotos studiaphotos tavern veneto venice wwwstudiaphotos geotagged,858,,2017-10-02 14:45:22,45.437299,12.336875,https://live.staticflickr.com/65535/25083777628_b730158060_m.jpg,Stuart Smith.,127349327@N05,photo
100,45271117032,1928,c71586c1ca,DSC_7426.jpg,venice venezia italy bar dei giardini biennale,78,best museum cafe evar.,2018-09-13 07:36:13,45.429178,12.358149,https://live.staticflickr.com/1928/45271117032_c71586c1ca_m.jpg,the pope UO,22942399@N06,photo
101,31344327878,1929,89370ab278,Contentment,scènederue venice italy blackandwhite noiretblanc bar candid streetphotography night,2356,"Venice, Italy",2014-11-30 14:59:41,45.432437,12.331101,https://live.staticflickr.com/1929/31344327878_89370ab278_m.jpg,Pierrot le chat,41005569@N08,photo
102,40196468444,785,8f2b879746,Caffè Florian,venezia venice carnevale carneval carnival carnaval italia italy costume people girl women man uomo ladies signore ragazze donne ritratti portrait selfie 2018 luci light costumi maschere bar,4090,The Cafè in Venice Since 1720. ,2018-02-09 19:02:34,45.433729,12.338472,https://live.staticflickr.com/785/40196468444_8f2b879746_m.jpg,R.o.b.e.r.t.o.,53699812@N00,photo
103,25083777628,65535,b730158060,"Devil's Forest Pub,  Calle dei Stagneri O de la Fava, Venice, Italy",geo:lat=4543729500 1991 bar devilsforestpub geo:lon=1233687557 httpstudiaphotos inn ita italy pub sestièredisanmarco signs stuartsmith stuartsmithstudiaphotos studiaphotos tavern veneto venice wwwstudiaphotos geotagged,858,,2017-10-02 14:45:22,45.437299,12.336875,https://live.staticflickr.com/65535/25083777628_b730158060_m.jpg,Stuart Smith.,127349327@N05,photo
104,45320696352,1948,1668c1990b,Via Giuseppe Garibaldi,viagiuseppegaribaldi italy italia venice venezia castello cafe bar,3513,,2018-04-20 11:56:33,45.432415,12.353568,https://live.staticflickr.com/1948/45320696352_1668c1990b_m.jpg,Insher,74315404@N08,photo
105,45271117032,1928,c71586c1ca,DSC_7426.jpg,venice venezia italy bar dei giardini biennale,78,best museum cafe evar.,2018-09-13 07:36:13,45.429178,12.358149,https://live.staticflickr.com/1928/45271117032_c71586c1ca_m.jpg,the pope UO,22942399@N06,photo
106,41299000734,829,09f55c07c7,,luciobeltrami contemporary art bar biennale street venezia,229,"Venezia, bar della Biennale",2017-08-18 13:47:40,45.433123,12.349448,https://live.staticflickr.com/829/41299000734_09f55c07c7_m.jpg,Zioluc,24196199@N00,photo
107,40502169194,899,3b58d98069,,streetphotography venice italy bar smoking scènederue,3059,"Venice, Italy",2016-11-21 10:41:41,45.439781,12.337796,https://live.staticflickr.com/899/40502169194_3b58d98069_m.jpg,Pierrot le chat,41005569@N08,photo
108,37917119891,65535,efca9c17e3,"Bar Foscarini, Ponte dell'Accademia, Venice, Veneto, Italy",bar canals foscarinibar geo:lat=4543145033 geo:lon=1232878447 geotagged httpstudiaphotos ita italy pontedellaccademia pontedellaccademiadorsoduroveneziavenetoitalia stuartsmith stuartsmithstudiaphotos studiaphotos veneto venezia venice wwwstudiaphotos,649,,2015-01-23 20:22:42,45.431450,12.328786,https://live.staticflickr.com/65535/37917119891_efca9c17e3_m.jpg,Stuart Smith.,127349327@N05,photo
109,37010471194,65535,f325048dee,Venice,venice italy bar samsung s7 samsungs7 venice2017 20170627122554 galaxys7edge smg935f,70,Harry's Bar,2017-06-27 12:25:54,45.432500,12.337500,https://live.staticflickr.com/65535/37010471194_f325048dee_m.jpg,wildhareuk,137918669@N08,photo
110,37719238351,65535,58efa5f550,Venice,venice italy bar samsung osteria s7 samsungs7 alsquero venice2017 20170626153958 galaxys7edge smg935f,87,Osteria Al Squero,2017-06-26 15:39:58,45.430088,12.326091,https://live.staticflickr.com/65535/37719238351_58efa5f550_m.jpg,wildhareuk,137918669@N08,photo
111,37049292493,65535,5334897d3a,Venice,venice people italy bar cafe bottles samsung osteria s7 samsungs7 alsquero venice2017 20170626150921 galaxys7edge smg935f,300,Inside the Osteria Al Squero,2017-06-26 15:09:21,45.430086,12.326127,https://live.staticflickr.com/65535/37049292493_5334897d3a_m.jpg,wildhareuk,137918669@N08,photo
112,38225131304,4591,75ef3c8013,Viva Arte Viva - La Biennale di Venezia 2017,venezia venise venice benátky venedig venecia venetië wenecja veneza veneto vénétie benátsko venetien véneto wenecjaeuganejska vêneto itálie italien italia italië włochy itália august2017 biennalearte 57thinternationalartexhibition biennale 57ebiennaledartcontemporain art exhibition exposition giardinidellabiennalearte giardini bar italy italie,185,"Castello | Calle Paludo Viva Arte Viva, 57th International Art Exhibition at the Giardini della Biennale Arte, 2017. Bar Dei Giardini.",2017-08-16 12:04:23,45.429441,12.358835,https://live.staticflickr.com/4591/38225131304_75ef3c8013_m.jpg,corno.fulgur75,129231073@N06,photo
113,38575967716,4540,0278eb75fe,Venesian.... Venesian..... [Venice - 29 July 2017],2017 venice veneto italy nordest ve venetians real people bar everydaylife nikond5100,446,,2017-07-29 09:34:12,45.432995,12.352538,https://live.staticflickr.com/4540/38575967716_0278eb75fe_m.jpg,Doc. Ing.,43056966@N07,photo
114,37010471194,65535,f325048dee,Venice,venice italy bar samsung s7 samsungs7 venice2017 20170627122554 galaxys7edge smg935f,70,Harry's Bar,2017-06-27 12:25:54,45.432500,12.337500,https://live.staticflickr.com/65535/37010471194_f325048dee_m.jpg,wildhareuk,137918669@N08,photo
115,37719238351,65535,58efa5f550,Venice,venice italy bar samsung osteria s7 samsungs7 alsquero venice2017 20170626153958 galaxys7edge smg935f,87,Osteria Al Squero,2017-06-26 15:39:58,45.430088,12.326091,https://live.staticflickr.com/65535/37719238351_58efa5f550_m.jpg,wildhareuk,137918669@N08,photo
116,37687319562,65535,c17ed0b379,Venice,venice people italy bar cafe samsung osteria s7 samsungs7 venice2017 20170626152307 galaxys7edge smg935f,73,Osteria Al Squero,2017-06-26 15:23:07,45.430277,12.323483,https://live.staticflickr.com/65535/37687319562_c17ed0b379_m.jpg,wildhareuk,137918669@N08,photo
117,37049292493,65535,5334897d3a,Venice,venice people italy bar cafe bottles samsung osteria s7 samsungs7 alsquero venice2017 20170626150921 galaxys7edge smg935f,300,Inside the Osteria Al Squero,2017-06-26 15:09:21,45.430086,12.326127,https://live.staticflickr.com/65535/37049292493_5334897d3a_m.jpg,wildhareuk,137918669@N08,photo
118,37719219681,65535,a540b04b58,Venice,venice italy bar cafe samsung osteria s7 samsungs7 alsquero venice2017 20170626150915 galaxys7edge smg935f,73,Inside the Osteria Al Squero,2017-06-26 15:09:15,45.430091,12.326111,https://live.staticflickr.com/65535/37719219681_a540b04b58_m.jpg,wildhareuk,137918669@N08,photo
119,37719213911,65535,1fe07a099c,Venice,venice people italy bar cafe samsung s7 samsungs7 venice2017 20170626150912 galaxys7edge smg935f,66,Inside the Osteria Al Squero,2017-06-26 15:09:12,45.430094,12.326113,https://live.staticflickr.com/65535/37719213911_1fe07a099c_m.jpg,wildhareuk,137918669@N08,photo
120,36790331274,4511,fbb0ded157,Venezia / Rio della Misericordia / At dusk,venise italie rio riodellamisericordia crépuscule vinivero bar eau barques bateaux nikon d7200 sigma 1750 quai misericordia 1750mmf28 gondole réverbère vénétie reflets nuit pantchoa pantxoa,8490,<b>© 2017 François de Nodrest / Pantchoa - All rights reserved.</b>,2017-09-20 19:32:43,45.444055,12.332833,https://live.staticflickr.com/4511/36790331274_fbb0ded157_m.jpg,Pantchoa,34096574@N06,photo
121,36794709165,4342,21c24c572f,aperol time,streetphotography shadows light goldenhour aperol venice italy viagiuseppegaribaldi bar,265,"strani, via giuseppe garibaldi - venice",2017-05-21 18:32:24,45.432205,12.352450,https://live.staticflickr.com/4342/36794709165_21c24c572f_m.jpg,malstad,70421659@N00,photo
122,31974362242,318,46225e42a8,Osteria3,osteria bar venice chicchetto bacari tapas italianstyle italianaperitif venezia bw biancoenero blackwhite,734,"Venezia, uno dei tanti bacari, frequentato da locali a quell'ora in cui è stata scattata...",2016-12-31 19:45:14,45.438513,12.333548,https://live.staticflickr.com/318/31974362242_46225e42a8_m.jpg,GrandecapoEstiCazzi,7833077@N08,photo
123,30381102964,5578,cf9fe31bac,Italien Venedig DSC_0668,italien venedig lagune insel meer stadt urlaub freizeit reise ferien tourismus kinder halloween bar café gast lokal süssigkeiten spas feier kostüm bub mädchen hut umhang maske schminke geist nacht abend,157,Kinder beim Halloween in den Café´s venedigs,2015-10-31 18:49:52,45.435671,12.323291,https://live.staticflickr.com/5578/30381102964_cf9fe31bac_m.jpg,reinhard_srb,141595328@N02,photo
124,33053286540,2839,bf4323c171,Harry's Bar,harrysbar bar veneza vêneto itália italy europa janela window passeio trip diversão cult,318,Sílvia Beatriz de Souza © All rights reserved.,2011-05-03 08:46:03,45.432536,12.337367,https://live.staticflickr.com/2839/33053286540_bf4323c171_m.jpg,Sereiazinha Si,40568776@N00,photo
125,33241774636,3766,53486c6ff4,Harry's Bar Cipriani,nikond800 venezia venice piazzasanmarco harrys bar carnevale maschere costume laguna gondole,117,© 2016 - Marino de Falco | Tutti i diritti riservati,2017-02-24 13:05:06,45.432619,12.337099,https://live.staticflickr.com/3766/33241774636_53486c6ff4_m.jpg,Marino de Falco,24753640@N08,photo
126,30160286644,5567,5d21979632,Projet 365-3 - 069/365,sanmarco venise venezia chaise bar restaurant,333,Place Saint Marc au petit matin,2016-11-01 09:03:45,45.434450,12.338732,https://live.staticflickr.com/5567/30160286644_5d21979632_m.jpg,Supernico26,30324371@N07,photo
127,30624192592,5599,c6d3e03a2a,Harry's Bar Selfie,italy venice harrysbar bar door selfie,141,"Another shot taken in Venice, Italy. Here I am reflected (with another passer by) in the door of Harry's Bar.",2016-03-10 11:39:59,45.432393,12.337174,https://live.staticflickr.com/5599/30624192592_c6d3e03a2a_m.jpg,J-o-h-n---E,53721792@N07,photo
128,35704023550,4313,d9db487319,Campo Santa Maria Nova,venice italy bar camposantamarianova,114,Little bar near my hotel where I spent time hanging out long days walking around.,2017-07-02 20:03:07,45.439847,12.339119,https://live.staticflickr.com/4313/35704023550_d9db487319_m.jpg,neilbruder,44124423673@N01,photo
129,32996831953,2908,30bc4fb6a8,Caffe Florian Venezia ( Notturno ),venezia caffeflorian caffe bar tavolini sedie,506,,2017-03-06 00:00:00,45.434358,12.335929,https://live.staticflickr.com/2908/32996831953_30bc4fb6a8_m.jpg,Maulamb,69452295@N05,photo
130,28314291013,8751,178e9c9474,Venice bar a notte,venice venezia veneto italia italy bar caffe night,572,                               ,2016-08-04 17:12:50,45.436360,12.337560,https://live.staticflickr.com/8751/28314291013_178e9c9474_m.jpg,ScotchBroom,54081800@N07,photo
131,27362193462,7363,467c39ced7,"PGA Motors Sabato, 4 Giugno 2016 Venezia (Ve) Italy",show venice party bar costume led motors convention evento pga giugno palazzo venezia michi pisani catering costumi gds 2016 moretta lightdesign corporateevent berini pisanimoretta oneplustwo,114,,2016-06-04 20:54:29,45.436059,12.329245,https://live.staticflickr.com/7363/27362193462_467c39ced7_m.jpg,Michi (Friuli),58302975@N02,photo
132,31974362242,318,46225e42a8,Osteria3,osteria bar venice chicchetto bacari tapas italianstyle italianaperitif venezia bw biancoenero blackwhite,734,"Venezia, uno dei tanti bacari, frequentato da locali a quell'ora in cui è stata scattata...",2016-12-31 19:45:14,45.438513,12.333548,https://live.staticflickr.com/318/31974362242_46225e42a8_m.jpg,GrandecapoEstiCazzi,7833077@N08,photo
133,30381102964,5578,cf9fe31bac,Italien Venedig DSC_0668,italien venedig lagune insel meer stadt urlaub freizeit reise ferien tourismus kinder halloween bar café gast lokal süssigkeiten spas feier kostüm bub mädchen hut umhang maske schminke geist nacht abend,157,Kinder beim Halloween in den Café´s venedigs,2015-10-31 18:49:52,45.435671,12.323291,https://live.staticflickr.com/5578/30381102964_cf9fe31bac_m.jpg,reinhard_srb,141595328@N02,photo
134,30624192592,5599,c6d3e03a2a,Harry's Bar Selfie,italy venice harrysbar bar door selfie,141,"Another shot taken in Venice, Italy. Here I am reflected (with another passer by) in the door of Harry's Bar.",2016-03-10 11:39:59,45.432393,12.337174,https://live.staticflickr.com/5599/30624192592_c6d3e03a2a_m.jpg,J-o-h-n---E,53721792@N07,photo
135,28840990483,8434,f94a718eee,Getting Lost in Venice,canon 5dmarkii travel italy venice venezia streetphotography street stairs gondolier bistrotdivenise sign ristorante bar enoteca,123,Taking a wrong turn but finding awesome stuff at every corner in Venice.,2016-07-27 19:04:36,45.435550,12.336444,https://live.staticflickr.com/8434/28840990483_f94a718eee_m.jpg,cookedphotos,29569468@N04,photo
136,26852284674,7183,51f9b70911,"PGA Motors Sabato, 4 Giugno 2016 Venezia (Ve) Italy",show venice party bar costume led motors convention evento pga giugno palazzo venezia michi pisani catering costumi gds 2016 moretta lightdesign corporateevent berini pisanimoretta oneplustwo,111,,2016-06-04 20:56:29,45.436059,12.329245,https://live.staticflickr.com/7183/26852284674_51f9b70911_m.jpg,Michi (Friuli),58302975@N02,photo
137,27184867110,7405,f00a8bb44e,"PGA Motors Sabato, 4 Giugno 2016 Venezia (Ve) Italy",show venice party bar costume led motors convention evento pga giugno palazzo venezia michi pisani catering costumi gds 2016 moretta lightdesign corporateevent berini pisanimoretta oneplustwo,121,,2016-06-04 20:56:56,45.436059,12.329245,https://live.staticflickr.com/7405/27184867110_f00a8bb44e_m.jpg,Michi (Friuli),58302975@N02,photo
138,26682648715,1693,98080d8a40,Lunch time at the Black-Jack Bar,street venice black bar jack drink cigarette lunchtime venezia,315,,2016-04-05 12:18:56,45.435841,12.335168,https://live.staticflickr.com/1693/26682648715_98080d8a40_m.jpg,timabbott,9314305@N02,photo
139,25785415194,1566,31dd05576f,break,venice 2 people blackandwhite bw italy monochrome bar cigarette streetphotography documentary fujifilm pause schwarzweiss venezia venedig bianconero rialto osteria x100t,1384,,2016-03-24 12:23:19,45.438588,12.335141,https://live.staticflickr.com/1566/25785415194_31dd05576f_m.jpg,.martinjakab,68628703@N03,photo
140,26852284674,7183,51f9b70911,"PGA Motors Sabato, 4 Giugno 2016 Venezia (Ve) Italy",show venice party bar costume led motors convention evento pga giugno palazzo venezia michi pisani catering costumi gds 2016 moretta lightdesign corporateevent berini pisanimoretta oneplustwo,111,,2016-06-04 20:56:29,45.436059,12.329245,https://live.staticflickr.com/7183/26852284674_51f9b70911_m.jpg,Michi (Friuli),58302975@N02,photo
141,27184867110,7405,f00a8bb44e,"PGA Motors Sabato, 4 Giugno 2016 Venezia (Ve) Italy",show venice party bar costume led motors convention evento pga giugno palazzo venezia michi pisani catering costumi gds 2016 moretta lightdesign corporateevent berini pisanimoretta oneplustwo,121,,2016-06-04 20:56:56,45.436059,12.329245,https://live.staticflickr.com/7405/27184867110_f00a8bb44e_m.jpg,Michi (Friuli),58302975@N02,photo
142,22934216832,575,819cfeff5b,Al colombo.,street door venice italy white house man black window bar menu lights one restaurant al pigeon single enzo streetphoto q venezia signboard ristorante bianco nero biancoenero colombo waiter veneto marcantonio leicaq architteture enzomarcantonio,475,,2015-11-07 17:19:25,45.434305,12.335275,https://live.staticflickr.com/575/22934216832_819cfeff5b_m.jpg,enzo marcantonio,21769883@N05,photo
143,22414106007,5806,74335c6238,VSOE - 3674,santa venice car bar lucia express orient venezia simplon vsoe 3674 ciwl voiturebar belmond barwagen compagnieinternationaledeswagonslits carozzabar,592,"3674, a Compagnie Internationale des Wagons Lits bar car built in France in 1929, is pictured in Venezia Santa Lucia having arrived as part of the Belmond Venice Simplon Orient Express from Paris",2014-05-23 17:28:41,45.441773,12.319686,https://live.staticflickr.com/5806/22414106007_74335c6238_m.jpg,KiloCharlie 68,121233082@N04,photo
144,25682414996,1550,34d358b58d,Bar lamps,venice italy lamp bar restaurant it february venedig 5star philippestarck veneto citytrip designhotel palazzinagrassi palazzinag httptravelmemocomeuropeitalybirthdaysurpriseinvenice,208,Bar lamps and breakfast,2016-02-24 09:03:33,45.434041,12.328136,https://live.staticflickr.com/1550/25682414996_34d358b58d_m.jpg,travelmemo.com,16253319@N00,photo
145,24215589125,1699,aedda25002,Biennale dell'arte 2011,venice game by bar this is thomas lorenzo quinn pavilion biennale venezia fos 54th poulsen 2011 danishpavillion osloo biennalefloating,2845,Venezia Italy. In this picture we see the work of Lorenzo Quinn &quot; This is not a game !!! &quot;,2016-01-06 20:17:18,45.428334,12.320373,https://live.staticflickr.com/1699/24215589125_aedda25002_m.jpg,ph.DanieleCirillo,138883094@N04,photo
146,24215589125,1699,aedda25002,Biennale dell'arte 2011,venice game by bar this is thomas lorenzo quinn pavilion biennale venezia fos 54th poulsen 2011 danishpavillion osloo biennalefloating,2845,Venezia Italy. In this picture we see the work of Lorenzo Quinn &quot; This is not a game !!! &quot;,2016-01-06 20:17:18,45.428334,12.320373,https://live.staticflickr.com/1699/24215589125_aedda25002_m.jpg,ph.DanieleCirillo,138883094@N04,photo
147,26187922741,1518,d21511f4c3,An Hour in St. Marc,camera venice people test motion church colors st collage bar clouds contrast photoshop canon square table eos evening daylight video san close faces cloudy edited tripod lagoon ups snaps marc marco snapshots 24 piazza laguna cinematic tamron 70 venezia stillness prova waiters montaggio istantanee cs6 70d camerieri,966,"A few stills taken in San Marco, during an hour-long walk, edited with photoshop cs6, since i momentarily lack a valuable Premiere Pro license or so.  Hope it works, since it's just a test video.  Full version (40 secs more):  ---- <a href=""https://www.youtube.com/watch?v=n1NEogd8Fps"" rel=""nofollow"">www.youtube.com/watch?v=n1NEogd8Fps</a> ",2016-04-05 08:23:06,45.434102,12.338247,https://live.staticflickr.com/1518/26187922741_d21511f4c3_m.jpg,filippogatteschi,135706304@N02,video
148,25682414996,1550,34d358b58d,Bar lamps,venice italy lamp bar restaurant it february venedig 5star philippestarck veneto citytrip designhotel palazzinagrassi palazzinag httptravelmemocomeuropeitalybirthdaysurpriseinvenice,208,Bar lamps and breakfast,2016-02-24 09:03:33,45.434041,12.328136,https://live.staticflickr.com/1550/25682414996_34d358b58d_m.jpg,travelmemo.com,16253319@N00,photo
149,22924436566,747,ccbbd71264,Bar,street venice italy bar calle cafe neon italia concept venecia caffe concepto juliolópezsaguar talkinginsilence conversacionesensilencio,1604,"Venice, Italy <a href=""http://www.jlopezsaguar.com"" rel=""nofollow"">www.jlopezsaguar.com</a> Please, do not use this photo without permission Por Favor no usar esta fotografía sin permiso",2009-10-14 17:50:59,45.434902,12.338730,https://live.staticflickr.com/747/22924436566_ccbbd71264_m.jpg,Julio López Saguar,35232195@N06,photo
150,22934216832,575,819cfeff5b,Al colombo.,street door venice italy white house man black window bar menu lights one restaurant al pigeon single enzo streetphoto q venezia signboard ristorante bianco nero biancoenero colombo waiter veneto marcantonio leicaq architteture enzomarcantonio,475,,2015-11-07 17:19:25,45.434305,12.335275,https://live.staticflickr.com/575/22934216832_819cfeff5b_m.jpg,enzo marcantonio,21769883@N05,photo
151,18492359600,502,da37d56d08,People in Venice 033 - At a cafe,city venice people urban italy man male men bar cafe italia drink streetlife streetscene mature elderly venezia colddrink veneto,598,"If it looks like ****,  it smells like **** and it tastes like **** then it must be ****!!!",2015-05-27 10:12:36,45.434738,12.323752,https://live.staticflickr.com/502/18492359600_da37d56d08_m.jpg,Row 17,9258223@N05,photo
152,16034974053,8638,ea71229a0f,Golden Venice,carnival venice italy bar night lights restaurant italia masks carnaval luci carnevale venezia ristorante notte sera piazzasanmarco costumi maschere nikond700 nikkor2470 flashsb900,5964,,2015-02-13 18:40:22,45.433729,12.338472,https://live.staticflickr.com/8638/16034974053_ea71229a0f_m.jpg,R.o.b.e.r.t.o.,53699812@N00,photo
153,18499040268,8834,744b07df88,People in Venice 035 - Sure is your round!,city venice people urban italy woman man men bar cafe women bars couple italia streetlife streetscene tourists venezia cafes streetfashion veneto,920,,2015-05-27 10:15:31,45.434738,12.323752,https://live.staticflickr.com/8834/18499040268_744b07df88_m.jpg,Row 17,9258223@N05,photo
154,18492359600,502,da37d56d08,People in Venice 033 - At a cafe,city venice people urban italy man male men bar cafe italia drink streetlife streetscene mature elderly venezia colddrink veneto,598,"If it looks like ****,  it smells like **** and it tastes like **** then it must be ****!!!",2015-05-27 10:12:36,45.434738,12.323752,https://live.staticflickr.com/502/18492359600_da37d56d08_m.jpg,Row 17,9258223@N05,photo
155,22414106007,5806,74335c6238,VSOE - 3674,santa venice car bar lucia express orient venezia simplon vsoe 3674 ciwl voiturebar belmond barwagen compagnieinternationaledeswagonslits carozzabar,592,"3674, a Compagnie Internationale des Wagons Lits bar car built in France in 1929, is pictured in Venezia Santa Lucia having arrived as part of the Belmond Venice Simplon Orient Express from Paris",2014-05-23 17:28:41,45.441773,12.319686,https://live.staticflickr.com/5806/22414106007_74335c6238_m.jpg,KiloCharlie 68,121233082@N04,photo
156,22027842162,5716,e32d60603a,Harry's Bar,venice italy bar venezia sanmarco harrysbar veneto 2015 nikond600 byklk,667,"Venice, Italy, September 18, 2015 (by klk).  The legendary Ernest Hemingway hangout was jammed and pricey.",2015-09-18 16:54:19,45.432372,12.337183,https://live.staticflickr.com/5716/22027842162_e32d60603a_m.jpg,Snap Man,35946983@N00,photo
157,19720618164,324,065e0df0b9,Pausa pranzo,bar gondola laguna venezia ristorante pranzo,218,,2015-07-30 14:06:49,45.431738,12.328784,https://live.staticflickr.com/324/19720618164_065e0df0b9_m.jpg,frescoroberto,22314539@N05,photo
158,19293762946,408,64874503fd,Crisi a Venezia? - Crisis in Venice?,venice saint bar square table chair san mark empty marco piazza venecia venezia sedie venedig caffè crisis tavolini vuoti,1879,Empty bar in St. Mark Square Venice,2015-06-21 09:49:55,45.434441,12.338097,https://live.staticflickr.com/408/19293762946_64874503fd_m.jpg,magellano,61033692@N00,photo
159,10561766394,7371,0103f459cb,Venice.,venice bw italy beautiful bar nikon venezia caffè,119,,2013-09-07 18:04:50,45.440320,12.321381,https://live.staticflickr.com/7371/10561766394_0103f459cb_m.jpg,Chiara Grotto,86413482@N05,photo
160,10158956493,3793,329b62fefc,BAR - Store front,italy colour shop smallshop bar photography store colorful pov traditional curtain citylife nobody squareformat storefront multicolored venue cornershop striped shopfront citystreet vibrantcolor brightcolour unusualangle urbanstreet urbanscene saturatedcolour personalperspective smallbusiness lowangleview cateringvenue mobilestock tandadasole,692,"Venezia, Italy: BAR, colorful, with sun-shading curtain. Shot with iPhone 5 and toned.",2013-10-02 15:49:17,45.434986,12.337075,https://live.staticflickr.com/3793/10158956493_329b62fefc_m.jpg,Marco Venturini Autieri,88761860@N00,photo
161,10869670583,3784,ed5b3ee494,venice,venice autumn winter italy water st bar canon square table high chair san solitude italia loneliness flood mark empty tide shift marco alta piazza tilt acqua inverno autunno venezia sedie tavolino emptiness flooded marea 6d vuoto canon6d,7465,,2013-11-15 14:24:50,45.434081,12.338633,https://live.staticflickr.com/3784/10869670583_ed5b3ee494_m.jpg,Roberto.Trombetta,29370225@N03,photo
162,10561766394,7371,0103f459cb,Venice.,venice bw italy beautiful bar nikon venezia caffè,119,,2013-09-07 18:04:50,45.440320,12.321381,https://live.staticflickr.com/7371/10561766394_0103f459cb_m.jpg,Chiara Grotto,86413482@N05,photo
163,14150661881,5478,2a7cf42f13,Dal Rosso sotto le stelle,santa bar al campo rosso venezia margherita,134,Dal Rosso sotto le stelle,2014-05-10 21:07:09,45.434319,12.323719,https://live.staticflickr.com/5478/14150661881_2a7cf42f13_m.jpg,Simosprizz,15696015@N05,photo
164,13711334415,7253,9e6d73aaab,Florian,door venice italy bar italia entrance porta florian venezia ingresso,631,,2014-02-09 14:56:51,45.433771,12.338107,https://live.staticflickr.com/7253/13711334415_9e6d73aaab_m.jpg,Ciccio Pizzettaro,70038540@N00,photo
165,10561766394,7371,0103f459cb,Venice.,venice bw italy beautiful bar nikon venezia caffè,119,,2013-09-07 18:04:50,45.440320,12.321381,https://live.staticflickr.com/7371/10561766394_0103f459cb_m.jpg,Chiara Grotto,86413482@N05,photo
166,10233385866,7409,bc28dd03fb,a sunny day in winter,venice winter people urban blackandwhite bw sun bar relax daylight seaside lightsandshadows alley nikon mood faces noiretblanc dream citylife streetshots streetphotography atmosphere streetlife streetscene lunchtime nb sidewalk thoughts sw venezia castello venedig bigcity sunnyday vn sunseekers polfilter urbanshots nikond1h lagooncity circularfilter livinginitaly livinginvenice lightsanddarks sidewalkbar characterstudies urbanvenice inthecolddays livinginlagooncity,4606,"Castello, Venezia, Italia   <b>© Xuan-Cung Le All rights reserved</b> seen in : <a href=""http://www.flickr.com/photos/le_xuan-cung/sets/72157629388008397/"">Venice</a> <a href=""http://www.flickriver.com/photos/le_xuan-cung/"" rel=""nofollow"">recent</a> <a href=""http://www.flickriver.com/photos/le_xuan-cung/friends/"" rel=""nofollow"">contacts images</a> ",2012-02-16 12:32:32,45.434448,12.346529,https://live.staticflickr.com/7409/10233385866_bc28dd03fb_m.jpg,Le Xuan-Cung,39151213@N08,photo
167,14356367392,3835,e671bdca65,"non guardarmi, non ti sento",venice two men bar table earphones listen luciobeltrami,763,,2013-08-14 11:40:44,45.439161,12.330136,https://live.staticflickr.com/3835/14356367392_e671bdca65_m.jpg,Zioluc,24196199@N00,photo
168,14051089090,2917,d14133b50e,Time to rest,trip venice man bar work reading venetsia,549,,2014-05-15 15:47:38,45.425496,12.332024,https://live.staticflickr.com/2917/14051089090_d14133b50e_m.jpg,Olli Ronimus,36728969@N07,photo
169,13007450253,7301,6d8eca9eac,High tide in Venice,city venice urban café bar clouds reflections table landscape chair nuages paysage venise reflets hdr chaise acquaalta hightide piazzasanmarco urbain placesaintmarc maréehaute atlanticsee,4625,"One of my old shot  My website: <a href=""http://www.stephaniebenjaminphoto.com/"" rel=""nofollow"">www.stephaniebenjaminphoto.com/</a>",2011-11-06 08:30:09,45.433454,12.338365,https://live.staticflickr.com/7301/13007450253_6d8eca9eac_m.jpg,StephanieB.,42574877@N06,photo
170,11924504755,2853,77bbf63111,"Venezia, March 2007",venice italy colour reflection film bar 35mm europe italia olympus negative venezia piazzasanmarco americano veneto om4ti,701,,2014-01-13 08:19:19,45.434697,12.338966,https://live.staticflickr.com/2853/11924504755_77bbf63111_m.jpg,Paul of Congleton,33493932@N00,photo
171,10869670583,3784,ed5b3ee494,venice,venice autumn winter italy water st bar canon square table high chair san solitude italia loneliness flood mark empty tide shift marco alta piazza tilt acqua inverno autunno venezia sedie tavolino emptiness flooded marea 6d vuoto canon6d,7465,,2013-11-15 14:24:50,45.434081,12.338633,https://live.staticflickr.com/3784/10869670583_ed5b3ee494_m.jpg,Roberto.Trombetta,29370225@N03,photo
172,10561766394,7371,0103f459cb,Venice.,venice bw italy beautiful bar nikon venezia caffè,119,,2013-09-07 18:04:50,45.440320,12.321381,https://live.staticflickr.com/7371/10561766394_0103f459cb_m.jpg,Chiara Grotto,86413482@N05,photo
173,11924504755,2853,77bbf63111,"Venezia, March 2007",venice italy colour reflection film bar 35mm europe italia olympus negative venezia piazzasanmarco americano veneto om4ti,701,,2014-01-13 08:19:19,45.434697,12.338966,https://live.staticflickr.com/2853/11924504755_77bbf63111_m.jpg,Paul of Congleton,33493932@N00,photo
174,11082755443,2889,0e4496f948,Venice streetlife III,street venice bw italy beautiful bar river blackwhite nikon europe taxi streetlife gondola venezia sunbeam canalgrande nikond3200 venicestreet,2070,,2013-11-25 12:17:08,45.438047,12.335447,https://live.staticflickr.com/2889/11082755443_0e4496f948_m.jpg,Northwind81,101926026@N07,photo
175,11082755443,2889,0e4496f948,Venice streetlife III,street venice bw italy beautiful bar river blackwhite nikon europe taxi streetlife gondola venezia sunbeam canalgrande nikond3200 venicestreet,2070,,2013-11-25 12:17:08,45.438047,12.335447,https://live.staticflickr.com/2889/11082755443_0e4496f948_m.jpg,Northwind81,101926026@N07,photo
176,10869670583,3784,ed5b3ee494,venice,venice autumn winter italy water st bar canon square table high chair san solitude italia loneliness flood mark empty tide shift marco alta piazza tilt acqua inverno autunno venezia sedie tavolino emptiness flooded marea 6d vuoto canon6d,7465,,2013-11-15 14:24:50,45.434081,12.338633,https://live.staticflickr.com/3784/10869670583_ed5b3ee494_m.jpg,Roberto.Trombetta,29370225@N03,photo
177,9820722333,5507,b64c48c5d7,Rialto Bridge in Venice,street city bridge venice people urban italy sun water bar work boats restaurant blackwhite amazing ancient europe top unique historic story gondola sight palaces magnificent rialto venicestreet iphone365 newsprintfilter,732,A classic sunny day in Venice shoot taken from Rialto Bridge,2013-04-18 13:14:49,45.437833,12.336166,https://live.staticflickr.com/5507/9820722333_b64c48c5d7_m.jpg,Northwind81,101926026@N07,photo
178,9253577408,5480,d44de403be,Al Paradiso - Venice,venice italy glass angel bar ceramic restaurant mirror bottles decorative venezia diners plaques veneto hanginglights sanpolo alparadiso,682,"A very nice restaurant in Venice. Don't look for me in the mirror. <a href=""http://www.fodors.com/world/europe/italy/venice/review-454084.html"" rel=""nofollow"">Here's a review.</a> GPS should be reasonably close, but not accurate.",2013-05-02 07:33:14,45.436353,12.327350,https://live.staticflickr.com/5480/9253577408_d44de403be_m.jpg,UrbanphotoZ,50133770@N06,photo
179,8291218362,8359,b71152cffb,Waiting for the client - Venise,voyage blackandwhite bw man café bar standing restaurant costume noiretblanc entrance nb venise italie veste ville waiter bold homme entrée verre glasse attente chauve trix400 wainting serveur vénétie silverefexpro2 sonyrx100 voyagesaintlaurent,5247,,2012-11-22 12:28:05,45.435080,12.339688,https://live.staticflickr.com/8359/8291218362_b71152cffb_m.jpg,Hervé KERNEIS,7942080@N08,photo
180,8269528562,8361,a2f937094a,Spritz - Venise,voyage orange glass bar restaurant wine alcool venise italie ville amer spritz verre boisson aperol vinblanc vénétie eaudeseltz sonyrx100 voyagesaintlaurent,1487,,2012-11-22 12:22:06,45.435080,12.339688,https://live.staticflickr.com/8361/8269528562_a2f937094a_m.jpg,Hervé KERNEIS,7942080@N08,photo
181,8254877413,8501,a3b7d65010,Spritz - Venise,voyage orange glass bar restaurant alcool venise italie preparation ville amer spritz verre boisson aperol vinblanc vénétie eaudeseltz sonyrx100 voyagesaintlaurent,3396,,2012-11-22 12:14:46,45.435080,12.339688,https://live.staticflickr.com/8501/8254877413_a3b7d65010_m.jpg,Hervé KERNEIS,7942080@N08,photo
182,8248698884,8202,f5a72ca7fe,keep the mouth shut,venice blackandwhite dog man cane bar night table piers uomo venezia caffè notte bocca biancoenero chiudere canon60d,786,Project Waiting  <b> Use without my permission is illegal. All Rights Reserved.</b> <u> Please don't post banners or images in comments. I'll delete them. </u> Critics are welcome,2012-12-01 02:43:41,45.434478,12.333290,https://live.staticflickr.com/8202/8248698884_f5a72ca7fe_m.jpg,Pier's spotless mind,47311741@N07,photo
183,8368777270,8329,8904b18eb1,Venise,voyage light blackandwhite bw bar restaurant arch noiretblanc nb ciel snack arcades venise italie ville lampadaire basilicadisanmarco arche trix400 candélabre vénétie basiliquesaintmarc silverefexpro2 sonyrx100 voyagesaintlaurent,6984,,2012-11-22 13:04:42,45.434763,12.338908,https://live.staticflickr.com/8329/8368777270_8904b18eb1_m.jpg,Hervé KERNEIS,7942080@N08,photo
184,8291218362,8359,b71152cffb,Waiting for the client - Venise,voyage blackandwhite bw man café bar standing restaurant costume noiretblanc entrance nb venise italie veste ville waiter bold homme entrée verre glasse attente chauve trix400 wainting serveur vénétie silverefexpro2 sonyrx100 voyagesaintlaurent,5247,,2012-11-22 12:28:05,45.435080,12.339688,https://live.staticflickr.com/8359/8291218362_b71152cffb_m.jpg,Hervé KERNEIS,7942080@N08,photo
185,8254877413,8501,a3b7d65010,Spritz - Venise,voyage orange glass bar restaurant alcool venise italie preparation ville amer spritz verre boisson aperol vinblanc vénétie eaudeseltz sonyrx100 voyagesaintlaurent,3396,,2012-11-22 12:14:46,45.435080,12.339688,https://live.staticflickr.com/8501/8254877413_a3b7d65010_m.jpg,Hervé KERNEIS,7942080@N08,photo
186,8248698884,8202,f5a72ca7fe,keep the mouth shut,venice blackandwhite dog man cane bar night table piers uomo venezia caffè notte bocca biancoenero chiudere canon60d,786,Project Waiting  <b> Use without my permission is illegal. All Rights Reserved.</b> <u> Please don't post banners or images in comments. I'll delete them. </u> Critics are welcome,2012-12-01 02:43:41,45.434478,12.333290,https://live.staticflickr.com/8202/8248698884_f5a72ca7fe_m.jpg,Pier's spotless mind,47311741@N07,photo
187,8291218362,8359,b71152cffb,Waiting for the client - Venise,voyage blackandwhite bw man café bar standing restaurant costume noiretblanc entrance nb venise italie veste ville waiter bold homme entrée verre glasse attente chauve trix400 wainting serveur vénétie silverefexpro2 sonyrx100 voyagesaintlaurent,5247,,2012-11-22 12:28:05,45.435080,12.339688,https://live.staticflickr.com/8359/8291218362_b71152cffb_m.jpg,Hervé KERNEIS,7942080@N08,photo
188,8269528562,8361,a2f937094a,Spritz - Venise,voyage orange glass bar restaurant wine alcool venise italie ville amer spritz verre boisson aperol vinblanc vénétie eaudeseltz sonyrx100 voyagesaintlaurent,1487,,2012-11-22 12:22:06,45.435080,12.339688,https://live.staticflickr.com/8361/8269528562_a2f937094a_m.jpg,Hervé KERNEIS,7942080@N08,photo
189,7889337592,8446,fce65b6479,Bars of Venice 1: Ferrovia,door venice sculpture sign architecture modern bar frieze relief signage lettering venise venezia railwaystations venedig altravenezia,1107,"1950's mural frieze with an updated Lion of Saint Mark, at the railway station",2012-08-29 06:03:21,45.440757,12.320201,https://live.staticflickr.com/8446/7889337592_fce65b6479_m.jpg,wamcclung,29007159@N02,photo
190,7787258760,7127,f413969b24,Nell'incantesimo,italien italy tower saint bar square nikon san europa europe italia tramonto bell mark campanile luci valeria itali italie turisti sera clocher passanti veneto d60 イタリア morrone ヨーロッパ إيطاليا أوربا evropë marcopiazza,1003,St Mark's Square - Venice - Veneto - Northern ITALY  No tripod ,2009-08-21 20:27:15,45.433748,12.337861,https://live.staticflickr.com/7127/7787258760_f413969b24_m.jpg,VALERIA MORRONE ヴァレリア فاليريا,11983943@N02,photo
191,7891456960,8457,9934f00bfb,Behind Bars - the view from the accountant's room,venice italy window glass bar italia palace pane palazzo venezia ducale doges,3297,"The Doge's Palace (Italian: Palazzo Ducale) is a palace built in Venetian Gothic style, and one of the main landmarks of the city of Venice, northern Italy. The palace was the residence of the Doge of Venice, the supreme authority of the Republic of Venice, opening as a museum in 1923. Today it is one of the 11 museums run by the Fondazione Musei Civici di Venezia.  <a href=""http://en.wikipedia.org/wiki/Doge's_Palace,_Venice"" rel=""nofollow"">en.wikipedia.org/wiki/Doge%27s_Palace,_Venice</a>  AIMG_4801",2011-09-15 18:43:34,45.433996,12.340532,https://live.staticflickr.com/8457/7891456960_9934f00bfb_m.jpg,ejhrap,42936790@N05,photo
192,7891456368,8438,c658c1fa13,Circles and rectangles,venice italy window glass bar italia palace carving marble pane palazzo venezia ducale doges,5791,"The Doge's Palace (Italian: Palazzo Ducale) is a palace built in Venetian Gothic style, and one of the main landmarks of the city of Venice, northern Italy. The palace was the residence of the Doge of Venice, the supreme authority of the Republic of Venice, opening as a museum in 1923. Today it is one of the 11 museums run by the Fondazione Musei Civici di Venezia.  <a href=""http://en.wikipedia.org/wiki/Doge's_Palace,_Venice"" rel=""nofollow"">en.wikipedia.org/wiki/Doge%27s_Palace,_Venice</a>  AIMG_4800",2011-09-15 18:37:45,45.433861,12.340146,https://live.staticflickr.com/8438/7891456368_c658c1fa13_m.jpg,ejhrap,42936790@N05,photo
193,8261515625,8064,905d464f2a,Half self - Venise,voyage blackandwhite bw selfportrait bar self table restaurant mirror noiretblanc femme half miroir venise italie ville chaises placard homme verres trix400 serveur vénétie carolinev silverefexpro2 sonyrx100 voyagesaintlaurent,4251,,2012-11-22 12:10:04,45.435080,12.339688,https://live.staticflickr.com/8064/8261515625_905d464f2a_m.jpg,Hervé KERNEIS,7942080@N08,photo
194,8254877413,8501,a3b7d65010,Spritz - Venise,voyage orange glass bar restaurant alcool venise italie preparation ville amer spritz verre boisson aperol vinblanc vénétie eaudeseltz sonyrx100 voyagesaintlaurent,3396,,2012-11-22 12:14:46,45.435080,12.339688,https://live.staticflickr.com/8501/8254877413_a3b7d65010_m.jpg,Hervé KERNEIS,7942080@N08,photo
195,8198000233,8201,f70f7d7c4f,Hidden Treasures,venice italy hot bar treasure chocolate hidden cosy 2012 acadamia,252,"Located in the Acadamia region, this Venetian bar was somewhat of a treasure. They served the most beautiful and satisfying Hot Chocolate I have ever found in Venice and they also have a large selection of other beverages at hand for the weary traveler.",2012-11-19 04:35:34,45.436255,12.327593,https://live.staticflickr.com/8201/8198000233_f70f7d7c4f_m.jpg,jaberwockysteve,11364153@N04,photo
196,8032958071,8177,80bf9853ec,il bar della stazione di Venezia,bar venezia stazione,337,il bar della stazione di Venezia          ,2012-09-28 10:18:05,45.440576,12.320566,https://live.staticflickr.com/8177/8032958071_80bf9853ec_m.jpg,Pivari.com,58978835@N00,photo
197,7949389400,8313,fae6ab052b,Pausa e relax al bar,venice white black coffee bar relax break venezia tavolino bianco caffè nero pausa,369,Relax and break at bar,2012-08-27 11:27:03,45.442782,12.324407,https://live.staticflickr.com/8313/7949389400_fae6ab052b_m.jpg,Fausto Zuppa - DigammaZeta,63691762@N04,photo
198,7902911368,8313,c8e80f474f,St Mark's Clocktower,venice windows shadow summer italy holiday clock colors birds bar facade contrast dark square italian san colours bright time basilica balcony pigeons july tourist tourists clocktower balconies marco zodiac passage venezia astrology stmarks clockface,553,,2012-07-27 16:06:23,45.434538,12.338687,https://live.staticflickr.com/8313/7902911368_c8e80f474f_m.jpg,benleto,54566918@N00,photo
199,7949389400,8313,fae6ab052b,Pausa e relax al bar,venice white black coffee bar relax break venezia tavolino bianco caffè nero pausa,369,Relax and break at bar,2012-08-27 11:27:03,45.442782,12.324407,https://live.staticflickr.com/8313/7949389400_fae6ab052b_m.jpg,Fausto Zuppa - DigammaZeta,63691762@N04,photo
200,7902911368,8313,c8e80f474f,St Mark's Clocktower,venice windows shadow summer italy holiday clock colors birds bar facade contrast dark square italian san colours bright time basilica balcony pigeons july tourist tourists clocktower balconies marco zodiac passage venezia astrology stmarks clockface,553,,2012-07-27 16:06:23,45.434538,12.338687,https://live.staticflickr.com/8313/7902911368_c8e80f474f_m.jpg,benleto,54566918@N00,photo
201,8198000233,8201,f70f7d7c4f,Hidden Treasures,venice italy hot bar treasure chocolate hidden cosy 2012 acadamia,252,"Located in the Acadamia region, this Venetian bar was somewhat of a treasure. They served the most beautiful and satisfying Hot Chocolate I have ever found in Venice and they also have a large selection of other beverages at hand for the weary traveler.",2012-11-19 04:35:34,45.436255,12.327593,https://live.staticflickr.com/8201/8198000233_f70f7d7c4f_m.jpg,jaberwockysteve,11364153@N04,photo
202,8032958071,8177,80bf9853ec,il bar della stazione di Venezia,bar venezia stazione,337,il bar della stazione di Venezia          ,2012-09-28 10:18:05,45.440576,12.320566,https://live.staticflickr.com/8177/8032958071_80bf9853ec_m.jpg,Pivari.com,58978835@N00,photo
203,6341587370,6100,edb6fc339a,Venetian Nightlife,longexposure venice italy bar night canon europe honeymoon sigma jewishghetto citynight veniceitaly canareggio photosbynight sigma18200os rebelxsi venetiannightlife,222,"We stayed in Canareggio, which our tour guide told us was a good thing because that's where the Venetian nightlife is. The bars stay open super late and lots of kids gather there. So we walked over to that area and this was it. There were maybe 4 other bars on this street and they were already closed at 10 p.m. For all the Venice photos click <a href=""http://www.flickr.com/photos/aechempati/sets/72157628013539636/with/6341596022/"">here</a> To see all the honeymoon photos click <a href=""http://www.flickr.com/photos/aechempati/collections/72157627770424893/"">here</a>",2011-10-06 14:18:24,45.443734,12.323720,https://live.staticflickr.com/6100/6341587370_edb6fc339a_m.jpg,aebphoto,29576390@N04,photo
204,6334565000,6102,761b08fc28,Acqua Alta,morning water café bar reflections high eau shadows cathedral tide ombre campanile cathédrale reflets hdr acquaalta haute piazzasanmarco matin marée placesaintmarc skyciel nuagecloud italiaitalie venisevenice seemer sonya550,4429,".La marée haute High tide..Place Saint-Marc.Venice  <a href=""http://fr.wikipedia.org/wiki/Acqua_alta"" rel=""nofollow"">fr.wikipedia.org/wiki/Acqua_alta</a>  My website :  <a href=""http://www.stephaniebenjaminphoto.com/"" rel=""nofollow"">www.stephaniebenjaminphoto.com/</a>",2011-11-06 08:28:14,45.433951,12.338193,https://live.staticflickr.com/6102/6334565000_761b08fc28_m.jpg,StephanieB.,42574877@N06,photo
205,8198000233,8201,f70f7d7c4f,Hidden Treasures,venice italy hot bar treasure chocolate hidden cosy 2012 acadamia,252,"Located in the Acadamia region, this Venetian bar was somewhat of a treasure. They served the most beautiful and satisfying Hot Chocolate I have ever found in Venice and they also have a large selection of other beverages at hand for the weary traveler.",2012-11-19 04:35:34,45.436255,12.327593,https://live.staticflickr.com/8201/8198000233_f70f7d7c4f_m.jpg,jaberwockysteve,11364153@N04,photo
206,8032958071,8177,80bf9853ec,il bar della stazione di Venezia,bar venezia stazione,337,il bar della stazione di Venezia          ,2012-09-28 10:18:05,45.440576,12.320566,https://live.staticflickr.com/8177/8032958071_80bf9853ec_m.jpg,Pivari.com,58978835@N00,photo
207,6706904641,7144,2f56c969df,"Piazza San Marco, Venezia",bar sedie piazzasanmarco campanilesanmarco tavolini,183,,2012-01-16 09:45:02,45.434132,12.339148,https://live.staticflickr.com/7144/6706904641_2f56c969df_m.jpg,Domenico Oppedisano,44783592@N07,photo
208,6644271477,7174,74d87b77ea,"Cip's Club at Sunset, Lagoon, Venice, Italy",travel food tourism bar dinner restaurant romance drinks dining elegance getawayvacation destinationcipriani wwwjaybenimagescom,214,,2007-07-31 13:00:15,45.427310,12.339674,https://live.staticflickr.com/7174/6644271477_74d87b77ea_m.jpg,Jay Ben Images,35857273@N08,photo
209,6018112377,6029,d6e687013b,Secondo at Osteria Alla Staffa,venice italy food fish bar bread geotagged restaurant italia eggplant wikipedia cod venezia ristorante potatos winebar wiki cousine veniceitaly veneziaitalia cicchetti geo:tool=gmif random6 alp11 osteriaallastaffadisperamontedariocsnc osteriaallastaffa cicchettibars geo:lat=45438533 geo:lon=12342866,271,"| <a href=""http://www.robogeo.com/Flickr2Map/?type=map&amp;view=hybrid&amp;zoom=19"" target=""_blank"" rel=""nofollow"">Google Map it!</a> | <a href=""http://en.wikipedia.org/wiki/Osteria"" target=""_blank"" rel=""nofollow"">Wikipedia</a> | ",2011-06-13 21:30:32,45.438533,12.342866,https://live.staticflickr.com/6029/6018112377_d6e687013b_m.jpg,ARKNTINA,49908474@N00,photo
210,6003042621,6003,10ab95f791,canary yellow,venice italy coffee yellow bar square chair fabio zimbalatti,523,Bar's chairs in St Mark's Square Venice.,2011-05-27 07:16:15,45.434333,12.338500,https://live.staticflickr.com/6003/6003042621_10ab95f791_m.jpg,f-zimba,26331129@N06,photo
211,6018112377,6029,d6e687013b,Secondo at Osteria Alla Staffa,venice italy food fish bar bread geotagged restaurant italia eggplant wikipedia cod venezia ristorante potatos winebar wiki cousine veniceitaly veneziaitalia cicchetti geo:tool=gmif random6 alp11 osteriaallastaffadisperamontedariocsnc osteriaallastaffa cicchettibars geo:lat=45438533 geo:lon=12342866,271,"| <a href=""http://www.robogeo.com/Flickr2Map/?type=map&amp;view=hybrid&amp;zoom=19"" target=""_blank"" rel=""nofollow"">Google Map it!</a> | <a href=""http://en.wikipedia.org/wiki/Osteria"" target=""_blank"" rel=""nofollow"">Wikipedia</a> | ",2011-06-13 21:30:32,45.438533,12.342866,https://live.staticflickr.com/6029/6018112377_d6e687013b_m.jpg,ARKNTINA,49908474@N00,photo
212,6003042621,6003,10ab95f791,canary yellow,venice italy coffee yellow bar square chair fabio zimbalatti,523,Bar's chairs in St Mark's Square Venice.,2011-05-27 07:16:15,45.434333,12.338500,https://live.staticflickr.com/6003/6003042621_10ab95f791_m.jpg,f-zimba,26331129@N06,photo
213,6970004928,5454,fe28e21833,florian,old venice bar nikon florian venezia hdr portico piazzasanmarco cafè d700 crembosco,500,,2012-02-26 12:20:26,45.433131,12.338751,https://live.staticflickr.com/5454/6970004928_fe28e21833_m.jpg,crembosco,50808097@N05,photo
214,6886328782,7189,0871107a7a,Waiting for customers in Venice,old city trip travel blue venice winter light red sea vacation sky italy panorama white house holiday black cold building history tourism church water beautiful architecture bar sunrise river table dawn boat canal italian chair san europe european cityscape view place little painted traditional famous transport atmosphere grand landmark scene lagoon tourist historic destination romantic marco gondola venetian venezia channel scenics attraction touristic,719,,2012-03-31 17:50:30,45.434098,12.337753,https://live.staticflickr.com/7189/6886328782_0871107a7a_m.jpg,Claudio Cantonetti,70399361@N06,photo
215,5930067507,6009,05d51e8126,Brek Ristorante,italy bar panasonic venezia 餐廳 出遊 義大利料理 大食 dmcgf1,282,"自助式餐廳  <a href=""http://www.brek.com/"" target=""_blank"" rel=""nofollow"">Brek Ristorante Self Service</a> 義大利 Venezia 威尼斯",2011-05-29 20:52:07,45.441848,12.322808,https://live.staticflickr.com/6009/5930067507_05d51e8126_m.jpg,"Richard, enjoy my life!",87807876@N00,photo
216,5853950967,5193,0c06b7cb48,Bar sign,venice italy sign bar venezia barsign barlamp,131,,2011-06-20 17:42:12,45.431234,12.328870,https://live.staticflickr.com/5193/5853950967_0c06b7cb48_m.jpg,bruceheavin,13885025@N05,photo
217,6644271477,7174,74d87b77ea,"Cip's Club at Sunset, Lagoon, Venice, Italy",travel food tourism bar dinner restaurant romance drinks dining elegance getawayvacation destinationcipriani wwwjaybenimagescom,214,,2007-07-31 13:00:15,45.427310,12.339674,https://live.staticflickr.com/7174/6644271477_74d87b77ea_m.jpg,Jay Ben Images,35857273@N08,photo
218,6396667347,7028,34f034e3a8,Shot drink in Venice,venice bar,331,,2011-11-20 13:41:01,45.439296,12.334342,https://live.staticflickr.com/7028/6396667347_34f034e3a8_m.jpg,Planiks (Rosi_bosi),44793763@N06,photo
219,5318794771,5163,3f116ba24b,Ai tavolini di un bar. Al sole.,venice italy bar italia chairs venezia sedie veneto tavolini cameriere sangiopanza,339,,2010-11-24 12:45:35,45.433240,12.330694,https://live.staticflickr.com/5163/5318794771_3f116ba24b_m.jpg,sangiopanza2000,88314750@N00,photo
220,5303191456,5163,f37f37e395,HARD ROCK CAFE' VENEZIA BAR DISCO PUB ROCK'N ROLL,venice bar disco pub rockroll musica venezia hardrockcafe memorabilia chitarra cimeli,613,"Back Camera  <a href=""http://www.micheleficara.com/"" target=""_newwindow"" rel=""nofollow"">LEGGI SENZA TIMORE il BLOG di Michele Ficara - CLICCA QUI</a>  iL MERAVIGLIOSO hARD rOCK cAFE' DI VENEZIA, UNA MECCA PER TUTTI GLI APPASSIONATI DI ROCK AND ROLL COME ME. le foto imperdibili dei migliori cimeli musicali appesi alle mitiche pareti. Chi passa da venezia non deve perdere una visita in questo posto dove sono anche il sindaco su Foursquare.",2010-10-24 19:36:39,45.433666,12.337500,https://live.staticflickr.com/5163/5303191456_f37f37e395_m.jpg,Michele Ficara Manganelli,23471159@N06,photo
221,5865952003,3175,5a838ee03e,Caleidoscopio,bar arte biennale venezia caleidoscopio riflesso specchi spercchio,84,,2011-06-18 13:14:14,45.428508,12.357323,https://live.staticflickr.com/3175/5865952003_5a838ee03e_m.jpg,Super Mario Bros1,42664201@N02,photo
222,5853950967,5193,0c06b7cb48,Bar sign,venice italy sign bar venezia barsign barlamp,131,,2011-06-20 17:42:12,45.431234,12.328870,https://live.staticflickr.com/5193/5853950967_0c06b7cb48_m.jpg,bruceheavin,13885025@N05,photo
223,4987183315,4109,b0d00f5e23,DSC02335,venice bar,64,,2010-07-31 06:21:09,45.431339,12.328800,https://live.staticflickr.com/4109/4987183315_b0d00f5e23_m.jpg,Simon Tregidgo,46489007@N06,photo
224,4986771835,4105,6850472b8f,Antico Martini,venice italy delete10 bar delete9 delete5 lights delete2 italia delete6 delete7 piano save3 delete8 delete3 delete delete4 save save2 luci dettagli venezia delete11 anticomartini invitojazz vitopaladini deletedbythehotboxuncensoredgroup,1898,,2010-09-07 18:42:10,45.433503,12.334229,https://live.staticflickr.com/4105/4986771835_6850472b8f_m.jpg,invitojazz,61112271@N00,photo
225,6644271477,7174,74d87b77ea,"Cip's Club at Sunset, Lagoon, Venice, Italy",travel food tourism bar dinner restaurant romance drinks dining elegance getawayvacation destinationcipriani wwwjaybenimagescom,214,,2007-07-31 13:00:15,45.427310,12.339674,https://live.staticflickr.com/7174/6644271477_74d87b77ea_m.jpg,Jay Ben Images,35857273@N08,photo
226,6396667347,7028,34f034e3a8,Shot drink in Venice,venice bar,331,,2011-11-20 13:41:01,45.439296,12.334342,https://live.staticflickr.com/7028/6396667347_34f034e3a8_m.jpg,Planiks (Rosi_bosi),44793763@N06,photo
